hotel_name	city	price	quality_test	total_rat	premium	lat	lon	part_total_rat	breakfast	cleanliness	comfort	facilities	food	hotel_condition	location	room	service	value_for_money	double_bed	king_bed	queen_bed	individual_bed	four_bed	two_ind_beds	five_bed	six_bed	triple	water_sports	winter_sports	family	party	fitness	gay_friendly	gourmets	big_groups	honey_moon	business	adults_only	single_status	pet_travelers	atrapalo_rc	customer_alliance_rc	expedia_rc	holiday_check_rc	hoteles_rc	hotelsclick_rc	splendia_rc	superbreak_rc	vinivi_rc	zoover_rc	hostelbookers_rc	atrapalo_r	customer_alliance_r	expedia_r	holiday_check_r	hoteles_r	hotelsclick_r	splendia_r	superbreak_r	vinivi_r	zoover_r	hostelbookers_r	air_conditioner	bar_in_hotel	gym	pet_allowed	parking	pool	restaurant	spa	wifi_room	wifi_hall	air_conditioner_free	bar_in_hotel_free	gym_free	pet_allowed_free	parking_free	pool_free	restaurant_free	spa_free	wifi_room_free	wifi_hall_free	hotel_type	neighbourhood	is_hotel_very_centric	is_hotel_centric	is_neighbourhood_very_centric
Sant Cugat	0	113	0	0	0	41.470749	2.085879	1023	78	91	85	82	73	85	88	81	84	79	1	0	0	0	0	0	0	0	0	0.0	0.0	0.0	0.0	0.0	0.0	0.0	1.0	0.0	1.0	0.0	0.0	0.0	383.0	1472.0	406.0	57.0	452.0	0.0	0.0	0.0	0.0	0.0	0.0	89.0	82.0	86.0	80.0	80.0	0.0	0.0	0.0	0.0	0.0	0.0	1.0	1.0	1.0	1.0	1.0	0.0	1.0	0.0	1.0	1.0	0.0	0.0	0.0	0.0	0.0	0.0	0.0	0.0	1.0	1.0	5	outskirt	False	False	False
Hotel HCC Open	0	90	0	0	0	41.381699	2.1551	1305	73	85	79	79	71	79	83	79	83	77	1	1	0	0	0	1	0	0	1	0.0	0.0	0.0	0.0	0.0	1.0	0.0	0.0	1.0	1.0	0.0	0.0	0.0	383.0	0.0	406.0	57.0	452.0	0.0	0.0	0.0	0.0	317.0	0.0	77.0	0.0	84.0	80.0	82.0	0.0	0.0	0.0	0.0	77.0	0.0	1.0	1.0	0.0	0.0	1.0	0.0	0.0	0.0	1.0	1.0	0.0	0.0	0.0	0.0	0.0	0.0	0.0	0.0	1.0	1.0	5	la Nova Esquerra de l'Eixample	False	True	True
Sansi Diputacio	0	109	0	0	0	41.388302	2.1646	896	69	76	75	76	74	76	88	71	78	72	1	0	0	0	0	1	0	0	0	0.0	0.0	0.0	0.0	0.0	1.0	0.0	0.0	1.0	1.0	1.0	1.0	0.0	0.0	0.0	406.0	57.0	452.0	654.0	0.0	0.0	0.0	317.0	0.0	0.0	0.0	78.0	75.0	78.0	68.0	0.0	0.0	0.0	71.0	0.0	1.0	1.0	0.0	0.0	1.0	0.0	0.0	0.0	1.0	1.0	0.0	0.0	0.0	0.0	0.0	0.0	0.0	0.0	1.0	1.0	5	la Dreta de l'Eixample	True	False	True
Hotel Arts Barcelona	0	329	0	0	0	41.387001	2.1964	2626	75	91	91	85	82	89	89	90	89	77	0	0	0	0	1	0	0	0	1	1.0	0.0	0.0	0.0	0.0	0.0	1.0	1.0	1.0	1.0	0.0	0.0	0.0	0.0	0.0	406.0	57.0	452.0	654.0	0.0	0.0	0.0	317.0	0.0	0.0	0.0	92.0	95.0	92.0	92.0	0.0	0.0	0.0	94.0	0.0	1.0	1.0	1.0	1.0	1.0	1.0	1.0	1.0	1.0	1.0	0.0	0.0	0.0	0.0	0.0	0.0	0.0	0.0	0.0	1.0	5	la Barceloneta	False	False	False
Medium Sitges Park	0	70	0	0	0	41.237034	1.81022	2271	74	86	79	80	74	83	92	78	82	78	1	0	0	0	0	1	0	0	0	1.0	0.0	0.0	0.0	0.0	1.0	0.0	0.0	1.0	0.0	0.0	0.0	0.0	383.0	0.0	406.0	57.0	452.0	0.0	0.0	0.0	0.0	0.0	0.0	84.0	0.0	82.0	75.0	84.0	0.0	0.0	0.0	0.0	0.0	0.0	1.0	1.0	0.0	1.0	1.0	1.0	1.0	0.0	1.0	1.0	0.0	0.0	0.0	0.0	0.0	0.0	0.0	0.0	1.0	1.0	5	outskirt	False	False	False
Two Hotel Barcelona By Axel	0	119	0	0	0	41.379131	2.156119	1658	75	91	86	85	78	83	84	83	88	82	0	1	0	1	0	1	0	0	0	0.0	0.0	0.0	0.0	0.0	1.0	0.0	0.0	0.0	0.0	1.0	0.0	0.0	0.0	0.0	406.0	0.0	452.0	0.0	0.0	0.0	0.0	0.0	0.0	0.0	0.0	86.0	0.0	86.0	0.0	0.0	0.0	0.0	0.0	0.0	1.0	1.0	1.0	1.0	1.0	1.0	0.0	0.0	1.0	1.0	0.0	0.0	0.0	0.0	0.0	0.0	0.0	0.0	1.0	1.0	5	Sant Antoni	False	True	True
Campanile Barcelona	0	44	0	0	0	41.508354	2.141169	830	68	75	68	71	67	70	67	69	72	72	1	0	0	1	0	0	0	0	1	0.0	0.0	0.0	0.0	0.0	0.0	0.0	1.0	0.0	1.0	0.0	0.0	0.0	383.0	0.0	406.0	57.0	452.0	0.0	0.0	0.0	0.0	0.0	434.0	65.0	0.0	68.0	72.0	66.0	0.0	0.0	0.0	0.0	0.0	84.0	1.0	1.0	0.0	1.0	1.0	0.0	1.0	0.0	1.0	1.0	0.0	0.0	0.0	0.0	0.0	0.0	0.0	0.0	1.0	1.0	5	outskirt	False	False	False
Campanile Cornellà	0	57	0	0	0	41.348305	2.082864	1844	64	82	79	77	79	81	72	78	80	78	1	0	0	1	0	0	0	0	0	0.0	0.0	0.0	0.0	0.0	0.0	0.0	0.0	0.0	1.0	0.0	0.0	0.0	383.0	0.0	406.0	57.0	452.0	0.0	0.0	0.0	0.0	0.0	0.0	75.0	0.0	80.0	77.0	80.0	0.0	0.0	0.0	0.0	0.0	0.0	1.0	1.0	0.0	0.0	1.0	0.0	1.0	0.0	1.0	1.0	0.0	0.0	0.0	0.0	0.0	0.0	0.0	0.0	1.0	1.0	5	outskirt	False	False	False
Ayre Hotel Gran Vía	0	125	1	0	0	41.373302	2.147286	5913	73	89	85	83	78	85	90	82	89	83	1	0	0	0	0	1	0	0	0	0.0	0.0	0.0	0.0	0.0	0.0	0.0	1.0	0.0	1.0	0.0	0.0	0.0	383.0	0.0	406.0	57.0	452.0	0.0	71.0	0.0	0.0	0.0	0.0	84.0	0.0	88.0	92.0	88.0	0.0	100.0	0.0	0.0	0.0	0.0	1.0	1.0	0.0	0.0	1.0	0.0	1.0	0.0	1.0	1.0	0.0	0.0	0.0	0.0	0.0	0.0	0.0	0.0	1.0	1.0	5	Montjuïc	False	False	False
Eurostars Barberà Parc	0	49	0	0	0	41.506802	2.136	1061	76	85	82	80	70	81	69	81	83	83	1	0	0	0	0	1	0	0	1	0.0	0.0	0.0	0.0	0.0	0.0	0.0	1.0	0.0	1.0	0.0	0.0	0.0	383.0	0.0	406.0	57.0	452.0	654.0	0.0	0.0	0.0	0.0	0.0	79.0	0.0	78.0	77.0	76.0	78.0	0.0	0.0	0.0	0.0	0.0	1.0	1.0	0.0	0.0	1.0	0.0	0.0	0.0	1.0	1.0	0.0	0.0	0.0	0.0	0.0	0.0	0.0	0.0	1.0	1.0	5	outskirt	False	False	False
Dolce Sitges	0	103	0	0	0	41.229488	1.772921	2214	84	91	91	88	84	89	82	86	86	80	0	1	0	0	0	1	0	0	0	0.0	0.0	1.0	0.0	0.0	0.0	1.0	1.0	1.0	1.0	0.0	0.0	0.0	383.0	0.0	406.0	57.0	452.0	0.0	71.0	0.0	0.0	0.0	0.0	76.0	0.0	90.0	87.0	92.0	0.0	91.0	0.0	0.0	0.0	0.0	1.0	1.0	1.0	0.0	1.0	1.0	1.0	1.0	1.0	1.0	0.0	0.0	0.0	0.0	0.0	0.0	0.0	0.0	0.0	0.0	7	outskirt	False	False	False
Duquesa de Cardona	0	220	0	0	0	41.379799	2.1804	2193	78	92	88	86	80	89	94	86	91	82	1	0	1	0	0	1	0	0	0	1.0	0.0	0.0	0.0	0.0	0.0	0.0	1.0	1.0	1.0	0.0	0.0	0.0	0.0	0.0	406.0	57.0	452.0	0.0	71.0	0.0	0.0	317.0	0.0	0.0	0.0	90.0	93.0	90.0	0.0	88.0	0.0	0.0	91.0	0.0	1.0	1.0	0.0	0.0	1.0	1.0	1.0	0.0	1.0	1.0	0.0	0.0	0.0	0.0	0.0	0.0	0.0	0.0	1.0	1.0	5	el Gòtic	False	True	True
Vincci Gala	0	198	0	0	0	41.389526	2.174714	3457	78	93	89	84	83	90	93	86	89	84	1	0	0	0	0	1	0	0	0	0.0	0.0	0.0	0.0	0.0	0.0	0.0	0.0	0.0	0.0	0.0	0.0	0.0	0.0	0.0	406.0	57.0	452.0	0.0	0.0	0.0	0.0	0.0	0.0	0.0	0.0	90.0	90.0	90.0	0.0	0.0	0.0	0.0	0.0	0.0	1.0	1.0	0.0	0.0	0.0	0.0	1.0	0.0	1.0	1.0	0.0	0.0	0.0	0.0	0.0	0.0	0.0	0.0	1.0	1.0	5	la Dreta de l'Eixample	True	False	True
Front Maritim Barcelona	0	108	0	0	0	41.404099	2.2139	2325	71	81	74	74	76	80	78	72	78	73	1	0	0	0	0	1	0	0	0	0.0	0.0	0.0	0.0	0.0	0.0	0.0	1.0	0.0	1.0	0.0	0.0	0.0	383.0	0.0	406.0	57.0	452.0	0.0	0.0	0.0	0.0	317.0	0.0	70.0	0.0	78.0	72.0	72.0	0.0	0.0	0.0	0.0	81.0	0.0	1.0	1.0	1.0	0.0	1.0	0.0	1.0	0.0	1.0	1.0	0.0	0.0	0.0	0.0	0.0	0.0	0.0	0.0	1.0	1.0	5	Diagonal Mar i el Front Marítim del Poblenou	False	False	False
Sidorme Viladecans	0	62	0	0	0	41.310223	2.027357	915	0	87	83	80	65	83	79	79	82	84	1	0	0	0	0	1	0	0	1	0.0	0.0	0.0	0.0	0.0	0.0	0.0	1.0	0.0	0.0	0.0	0.0	0.0	0.0	0.0	406.0	57.0	452.0	0.0	0.0	0.0	0.0	0.0	0.0	0.0	0.0	82.0	73.0	82.0	0.0	0.0	0.0	0.0	0.0	0.0	1.0	1.0	0.0	0.0	1.0	0.0	0.0	0.0	1.0	1.0	0.0	0.0	0.0	0.0	0.0	0.0	0.0	0.0	1.0	1.0	5	outskirt	False	False	False
Hotel Subur	0	45	0	0	0	41.234848	1.806409	1227	73	77	68	68	71	70	92	66	76	73	1	0	0	1	0	0	0	0	1	1.0	0.0	0.0	0.0	0.0	1.0	0.0	0.0	0.0	0.0	0.0	0.0	1.0	383.0	0.0	406.0	57.0	452.0	0.0	0.0	0.0	0.0	317.0	0.0	68.0	0.0	72.0	73.0	74.0	0.0	0.0	0.0	0.0	77.0	0.0	1.0	1.0	0.0	1.0	1.0	0.0	1.0	0.0	1.0	1.0	0.0	0.0	0.0	0.0	0.0	0.0	0.0	0.0	1.0	1.0	5	outskirt	False	False	False
La Santa María	0	65	0	0	1	41.234516	1.806119	1124	80	80	76	73	76	74	93	72	77	75	1	0	0	0	0	0	0	0	0	0.0	0.0	0.0	0.0	0.0	1.0	0.0	0.0	0.0	0.0	0.0	0.0	0.0	0.0	0.0	406.0	57.0	452.0	0.0	0.0	0.0	0.0	317.0	0.0	0.0	0.0	78.0	85.0	78.0	0.0	0.0	0.0	0.0	53.0	0.0	1.0	1.0	0.0	0.0	1.0	0.0	1.0	0.0	1.0	1.0	0.0	0.0	0.0	0.0	0.0	0.0	0.0	0.0	1.0	1.0	5	outskirt	False	False	False
SB Bcn Events	0	72	0	0	0	41.2812	1.9895	3227	0	84	82	82	74	80	73	79	79	81	1	0	0	0	0	0	0	0	0	1.0	0.0	0.0	0.0	0.0	0.0	0.0	1.0	0.0	1.0	0.0	0.0	0.0	383.0	0.0	406.0	57.0	452.0	0.0	0.0	0.0	0.0	317.0	0.0	81.0	0.0	80.0	82.0	80.0	0.0	0.0	0.0	0.0	73.0	0.0	1.0	1.0	1.0	1.0	1.0	1.0	1.0	0.0	1.0	1.0	0.0	0.0	0.0	0.0	0.0	0.0	0.0	0.0	1.0	1.0	5	outskirt	False	False	False
Hotel Calipolis	0	112	0	0	0	41.234104	1.804421	1141	79	84	79	77	81	81	93	76	79	70	1	0	0	0	1	0	0	0	1	0.0	0.0	0.0	0.0	0.0	0.0	0.0	0.0	0.0	1.0	0.0	0.0	0.0	383.0	0.0	406.0	57.0	452.0	0.0	0.0	0.0	0.0	317.0	0.0	76.0	0.0	82.0	83.0	84.0	0.0	0.0	0.0	0.0	77.0	0.0	1.0	1.0	1.0	1.0	1.0	1.0	1.0	0.0	1.0	1.0	0.0	0.0	0.0	0.0	0.0	0.0	0.0	0.0	1.0	1.0	5	outskirt	False	False	False
Palou	0	63	0	0	0	41.262741	1.778341	218	0	94	90	87	0	83	84	81	93	88	0	1	1	0	0	1	0	0	0	0.0	0.0	0.0	0.0	0.0	0.0	0.0	0.0	0.0	1.0	0.0	0.0	0.0	0.0	0.0	406.0	57.0	452.0	0.0	0.0	0.0	0.0	0.0	0.0	0.0	0.0	90.0	100.0	90.0	0.0	0.0	0.0	0.0	0.0	0.0	1.0	1.0	0.0	1.0	1.0	1.0	1.0	0.0	1.0	1.0	0.0	0.0	0.0	0.0	0.0	0.0	0.0	0.0	1.0	1.0	5	outskirt	False	False	False
Silken Diagonal Barcelona	0	105	1	0	0	41.404026	2.190373	5269	79	85	81	80	77	83	80	82	82	78	1	0	0	0	0	0	0	0	0	0.0	0.0	0.0	0.0	0.0	1.0	0.0	1.0	0.0	1.0	0.0	0.0	0.0	383.0	0.0	406.0	57.0	452.0	0.0	71.0	0.0	0.0	0.0	0.0	82.0	0.0	84.0	87.0	82.0	0.0	88.0	0.0	0.0	0.0	0.0	1.0	1.0	0.0	0.0	1.0	1.0	1.0	0.0	1.0	1.0	0.0	0.0	0.0	0.0	0.0	0.0	0.0	0.0	1.0	1.0	5	el Parc i la Llacuna del Poblenou	False	True	False
Vincci Bit	0	115	1	0	0	41.411663	2.211892	2584	78	91	89	84	74	88	78	88	86	85	1	1	0	0	0	0	0	0	0	0.0	0.0	0.0	1.0	0.0	0.0	0.0	1.0	0.0	1.0	0.0	0.0	0.0	383.0	0.0	406.0	57.0	452.0	0.0	0.0	0.0	0.0	317.0	0.0	85.0	0.0	86.0	85.0	88.0	0.0	0.0	0.0	0.0	87.0	0.0	1.0	1.0	1.0	0.0	1.0	1.0	1.0	1.0	1.0	1.0	0.0	0.0	0.0	0.0	0.0	0.0	0.0	0.0	1.0	1.0	5	outskirt	False	False	False
Novotel Barcelona City	0	116	0	0	0	41.403931	2.191166	2719	78	88	84	84	78	86	83	83	85	80	0	0	1	0	1	0	0	0	0	0.0	0.0	1.0	0.0	0.0	0.0	0.0	0.0	0.0	1.0	0.0	0.0	1.0	383.0	0.0	406.0	57.0	452.0	0.0	0.0	0.0	0.0	317.0	0.0	86.0	0.0	86.0	87.0	86.0	0.0	0.0	0.0	0.0	87.0	0.0	1.0	1.0	1.0	1.0	1.0	1.0	1.0	0.0	1.0	1.0	0.0	0.0	0.0	0.0	0.0	0.0	0.0	0.0	1.0	1.0	5	el Parc i la Llacuna del Poblenou	False	True	False
Eurostars Grand Marina	0	218	0	0	0	41.371799	2.1809	6231	79	90	87	84	83	84	86	86	87	77	1	0	0	0	0	1	0	0	0	0.0	0.0	0.0	0.0	0.0	0.0	0.0	1.0	0.0	1.0	0.0	0.0	0.0	0.0	0.0	406.0	57.0	452.0	0.0	71.0	0.0	0.0	317.0	0.0	0.0	0.0	88.0	87.0	86.0	0.0	81.0	0.0	0.0	91.0	0.0	1.0	1.0	1.0	0.0	1.0	1.0	1.0	0.0	1.0	1.0	0.0	0.0	0.0	0.0	0.0	0.0	0.0	0.0	1.0	1.0	5	el Raval	False	True	True
Porta Fira	0	153	0	0	0	41.354939	2.125297	2940	74	91	90	85	82	90	78	88	88	85	1	1	0	0	0	0	0	0	0	0.0	0.0	0.0	0.0	0.0	0.0	0.0	1.0	0.0	1.0	0.0	0.0	0.0	383.0	0.0	406.0	57.0	452.0	0.0	71.0	0.0	0.0	0.0	0.0	86.0	0.0	88.0	90.0	88.0	0.0	100.0	0.0	0.0	0.0	0.0	1.0	1.0	1.0	0.0	1.0	0.0	1.0	0.0	1.0	1.0	0.0	0.0	0.0	0.0	0.0	0.0	0.0	0.0	1.0	1.0	5	outskirt	False	False	False
BlueBay City Barcelona Sant Cugat	0	66	0	0	0	41.499531	2.073294	743	75	87	84	79	77	83	73	79	83	80	1	0	0	0	0	0	0	0	0	0.0	0.0	1.0	0.0	0.0	0.0	0.0	1.0	0.0	1.0	0.0	0.0	0.0	0.0	0.0	406.0	57.0	452.0	0.0	0.0	0.0	0.0	0.0	0.0	0.0	0.0	86.0	78.0	88.0	0.0	0.0	0.0	0.0	0.0	0.0	1.0	0.0	0.0	1.0	1.0	1.0	0.0	0.0	1.0	1.0	0.0	0.0	0.0	0.0	0.0	0.0	0.0	0.0	0.0	0.0	5	outskirt	False	False	False
U232	0	72	0	0	0	41.389198	2.1489	2565	80	91	88	84	79	89	84	87	89	85	1	0	0	0	0	0	0	0	0	0.0	0.0	0.0	0.0	0.0	0.0	0.0	0.0	0.0	1.0	0.0	0.0	0.0	383.0	0.0	406.0	57.0	452.0	0.0	0.0	0.0	0.0	317.0	0.0	87.0	0.0	88.0	83.0	88.0	0.0	0.0	0.0	0.0	83.0	0.0	1.0	1.0	1.0	1.0	1.0	0.0	0.0	0.0	1.0	1.0	0.0	0.0	0.0	0.0	0.0	0.0	0.0	0.0	1.0	1.0	5	la Nova Esquerra de l'Eixample	False	True	True
Eurostars Anglí	0	54	1	0	0	41.403198	2.1232	1252	71	82	83	82	76	79	76	82	85	81	1	0	0	0	0	1	0	0	0	0.0	0.0	0.0	0.0	0.0	0.0	0.0	0.0	0.0	1.0	0.0	0.0	0.0	383.0	0.0	406.0	57.0	452.0	0.0	0.0	0.0	0.0	317.0	0.0	83.0	0.0	82.0	70.0	78.0	0.0	0.0	0.0	0.0	84.0	0.0	1.0	0.0	0.0	0.0	1.0	1.0	0.0	0.0	1.0	1.0	0.0	0.0	0.0	0.0	0.0	0.0	0.0	0.0	0.0	0.0	5	Sarrià	False	False	False
Salles Hotel Pere IV	0	105	1	0	0	41.3969	2.1924	5294	73	84	79	77	75	80	68	80	83	76	1	0	0	0	0	1	0	0	0	0.0	0.0	0.0	0.0	0.0	0.0	0.0	1.0	0.0	1.0	0.0	0.0	0.0	383.0	0.0	406.0	57.0	452.0	0.0	0.0	0.0	0.0	317.0	0.0	76.0	0.0	80.0	77.0	80.0	0.0	0.0	0.0	0.0	79.0	0.0	1.0	1.0	1.0	1.0	1.0	1.0	1.0	1.0	1.0	1.0	0.0	0.0	0.0	0.0	0.0	0.0	0.0	0.0	1.0	1.0	5	el Parc i la Llacuna del Poblenou	False	True	False
Eurostars Lex	0	94	0	0	0	41.365517	2.130544	1544	76	85	83	79	71	81	74	83	85	79	1	0	0	0	0	0	0	0	0	0.0	0.0	0.0	0.0	0.0	0.0	0.0	0.0	0.0	1.0	0.0	0.0	0.0	383.0	0.0	406.0	57.0	452.0	0.0	0.0	0.0	0.0	317.0	0.0	70.0	0.0	82.0	25.0	80.0	0.0	0.0	0.0	0.0	66.0	0.0	1.0	1.0	1.0	0.0	1.0	0.0	0.0	0.0	1.0	1.0	0.0	0.0	0.0	0.0	0.0	0.0	0.0	0.0	1.0	1.0	5	outskirt	False	False	False
Salles Hotel Ciutat del Prat	0	90	0	0	0	41.325001	2.087401	3230	78	86	82	80	73	83	77	79	81	79	1	0	0	1	0	0	0	0	0	0.0	0.0	0.0	0.0	0.0	0.0	0.0	0.0	0.0	1.0	0.0	0.0	0.0	383.0	0.0	406.0	57.0	452.0	0.0	0.0	0.0	0.0	317.0	0.0	77.0	0.0	78.0	77.0	80.0	0.0	0.0	0.0	0.0	79.0	0.0	1.0	1.0	1.0	1.0	1.0	1.0	1.0	1.0	1.0	1.0	0.0	0.0	0.0	0.0	0.0	0.0	0.0	0.0	1.0	1.0	5	outskirt	False	False	False
Luna	0	45	0	0	0	41.267532	1.973312	238	0	80	73	73	77	71	83	80	84	77	1	0	0	0	0	1	0	0	1	0.0	0.0	1.0	0.0	0.0	0.0	0.0	0.0	0.0	1.0	0.0	0.0	0.0	0.0	0.0	406.0	57.0	452.0	0.0	0.0	0.0	0.0	317.0	0.0	0.0	0.0	52.0	67.0	66.0	0.0	0.0	0.0	0.0	90.0	0.0	1.0	0.0	0.0	0.0	1.0	1.0	1.0	0.0	0.0	1.0	0.0	0.0	0.0	0.0	0.0	0.0	0.0	0.0	0.0	0.0	5	outskirt	False	False	False
Expo Hotel Barcelona	0	89	1	0	0	41.379173	2.142888	6620	77	79	71	73	74	72	83	68	80	73	1	0	0	1	0	0	0	0	0	0.0	0.0	1.0	0.0	0.0	0.0	0.0	1.0	0.0	1.0	0.0	0.0	0.0	383.0	0.0	406.0	57.0	452.0	0.0	0.0	0.0	0.0	317.0	0.0	73.0	0.0	78.0	77.0	76.0	0.0	0.0	0.0	0.0	78.0	0.0	1.0	1.0	1.0	1.0	1.0	1.0	1.0	0.0	1.0	1.0	0.0	0.0	0.0	0.0	0.0	0.0	0.0	0.0	0.0	0.0	5	Hostafrancs	False	False	False
Hesperia Presidente	0	98	0	0	0	41.394199	2.1492	1735	83	89	86	81	77	85	85	83	86	82	0	1	1	0	0	1	0	0	0	0.0	0.0	1.0	0.0	0.0	1.0	0.0	1.0	0.0	1.0	0.0	0.0	0.0	383.0	0.0	406.0	57.0	452.0	0.0	0.0	0.0	0.0	317.0	0.0	87.0	0.0	88.0	85.0	84.0	0.0	0.0	0.0	0.0	83.0	0.0	1.0	1.0	1.0	0.0	1.0	0.0	1.0	0.0	1.0	1.0	0.0	0.0	0.0	0.0	0.0	0.0	0.0	0.0	1.0	1.0	5	Galvany	False	True	False
NH Barcelona Les Corts	0	100	1	0	0	41.387501	2.1366	1333	72	83	78	76	70	77	79	75	79	75	0	0	1	1	0	1	0	0	0	0.0	0.0	0.0	0.0	0.0	1.0	0.0	0.0	0.0	0.0	0.0	1.0	0.0	383.0	0.0	406.0	57.0	452.0	0.0	0.0	0.0	0.0	317.0	0.0	74.0	0.0	78.0	80.0	78.0	0.0	0.0	0.0	0.0	74.0	0.0	1.0	0.0	0.0	0.0	1.0	0.0	0.0	0.0	1.0	1.0	0.0	0.0	0.0	0.0	0.0	0.0	0.0	0.0	1.0	1.0	5	Carrer de Nicaragua	False	False	False
Mare Nostrum	0	94	0	0	1	41.375237	2.167661	2036	76	85	74	78	77	79	95	72	85	82	1	0	0	1	0	1	0	0	1	0.0	0.0	0.0	0.0	0.0	0.0	0.0	0.0	0.0	0.0	0.0	1.0	0.0	383.0	0.0	406.0	57.0	452.0	0.0	0.0	0.0	0.0	317.0	0.0	67.0	0.0	82.0	82.0	82.0	0.0	0.0	0.0	0.0	76.0	0.0	1.0	0.0	0.0	1.0	0.0	0.0	0.0	0.0	1.0	1.0	0.0	0.0	0.0	0.0	0.0	0.0	0.0	0.0	1.0	1.0	4	el Raval	False	True	True
Aqua Montagut	0	48	0	0	0	41.636002	2.7231	1621	78	85	80	79	78	82	79	84	87	82	1	0	0	0	1	0	0	0	0	1.0	0.0	1.0	0.0	0.0	0.0	0.0	0.0	0.0	0.0	0.0	0.0	0.0	383.0	0.0	406.0	57.0	452.0	0.0	0.0	0.0	0.0	317.0	0.0	83.0	0.0	82.0	78.0	82.0	0.0	0.0	0.0	0.0	85.0	0.0	1.0	1.0	0.0	1.0	1.0	1.0	1.0	0.0	1.0	1.0	0.0	0.0	0.0	0.0	0.0	0.0	0.0	0.0	0.0	1.0	5	outskirt	False	False	False
Gran Hotel Rey Don Jaime	0	59	0	0	0	41.270058	1.961275	2263	78	83	79	81	83	78	78	77	78	78	1	0	0	0	0	0	0	0	0	1.0	0.0	0.0	0.0	0.0	0.0	0.0	0.0	0.0	1.0	0.0	0.0	0.0	383.0	0.0	406.0	57.0	452.0	0.0	0.0	0.0	0.0	317.0	0.0	79.0	0.0	78.0	87.0	80.0	0.0	0.0	0.0	0.0	81.0	0.0	1.0	1.0	0.0	0.0	1.0	1.0	1.0	1.0	1.0	1.0	0.0	0.0	0.0	0.0	0.0	0.0	0.0	0.0	1.0	1.0	5	outskirt	False	False	False
TRYP Barcelona Aeropuerto	0	100	0	0	0	41.31218	2.068257	1674	73	82	78	73	73	81	78	79	81	73	1	0	0	0	0	0	0	0	0	0.0	0.0	0.0	0.0	0.0	0.0	0.0	1.0	0.0	1.0	0.0	0.0	0.0	383.0	0.0	406.0	57.0	452.0	0.0	0.0	0.0	0.0	317.0	0.0	77.0	0.0	76.0	80.0	76.0	0.0	0.0	0.0	0.0	88.0	0.0	1.0	1.0	1.0	0.0	1.0	0.0	1.0	0.0	1.0	1.0	0.0	0.0	0.0	0.0	0.0	0.0	0.0	0.0	1.0	1.0	5	outskirt	False	False	False
NH Barcelona Diagonal Center	0	110	1	0	0	41.398014	2.192306	1658	70	84	80	76	79	81	69	80	83	78	0	0	1	0	0	1	0	0	0	0.0	0.0	0.0	1.0	0.0	0.0	0.0	0.0	0.0	1.0	0.0	0.0	0.0	383.0	0.0	406.0	57.0	452.0	0.0	0.0	0.0	0.0	317.0	0.0	70.0	0.0	78.0	77.0	80.0	0.0	0.0	0.0	0.0	75.0	0.0	1.0	1.0	0.0	0.0	1.0	0.0	1.0	0.0	1.0	1.0	0.0	0.0	0.0	0.0	0.0	0.0	0.0	0.0	1.0	1.0	5	el Parc i la Llacuna del Poblenou	False	True	False
Solifemar	0	50	0	0	0	41.265484	1.994614	43	0	86	79	79	80	0	89	81	85	83	1	0	0	1	0	1	0	0	0	1.0	0.0	1.0	0.0	0.0	0.0	0.0	0.0	0.0	1.0	0.0	0.0	0.0	0.0	0.0	0.0	57.0	0.0	0.0	0.0	0.0	0.0	317.0	0.0	0.0	0.0	0.0	85.0	0.0	0.0	0.0	0.0	0.0	82.0	0.0	1.0	1.0	0.0	0.0	1.0	0.0	1.0	0.0	1.0	1.0	0.0	0.0	0.0	0.0	0.0	0.0	0.0	0.0	1.0	1.0	1	outskirt	False	False	False
Aparthotel Attica 21 Vallés	0	49	0	0	0	41.555382	2.075321	1851	74	84	85	81	69	82	73	82	83	84	1	0	0	0	0	0	0	0	0	0.0	0.0	0.0	0.0	0.0	0.0	0.0	0.0	0.0	0.0	0.0	0.0	0.0	383.0	0.0	406.0	57.0	452.0	0.0	0.0	0.0	0.0	317.0	0.0	78.0	0.0	84.0	75.0	84.0	0.0	0.0	0.0	0.0	80.0	0.0	1.0	1.0	0.0	1.0	1.0	0.0	1.0	0.0	1.0	1.0	0.0	0.0	0.0	0.0	0.0	0.0	0.0	0.0	0.0	1.0	1	outskirt	False	False	False
Ricard	0	55	0	0	1	41.214764	1.733196	116	0	84	79	76	0	0	86	80	83	82	0	0	0	0	0	1	0	0	0	1.0	0.0	0.0	0.0	0.0	1.0	0.0	0.0	0.0	0.0	0.0	0.0	0.0	0.0	0.0	0.0	0.0	0.0	0.0	0.0	0.0	0.0	0.0	0.0	0.0	0.0	0.0	0.0	0.0	0.0	0.0	0.0	0.0	0.0	0.0	0.0	1.0	0.0	1.0	0.0	0.0	0.0	0.0	1.0	1.0	0.0	0.0	0.0	0.0	0.0	0.0	0.0	0.0	1.0	1.0	5	outskirt	False	False	False
Onix Fira	0	101	1	0	0	41.376957	2.149763	768	73	79	71	70	70	71	85	74	76	74	0	0	0	0	0	0	0	0	1	0.0	0.0	0.0	0.0	0.0	1.0	0.0	1.0	0.0	1.0	0.0	0.0	0.0	383.0	0.0	406.0	57.0	452.0	0.0	0.0	0.0	0.0	317.0	0.0	75.0	0.0	70.0	77.0	70.0	0.0	0.0	0.0	0.0	78.0	0.0	1.0	0.0	0.0	0.0	1.0	1.0	0.0	0.0	1.0	1.0	0.0	0.0	0.0	0.0	0.0	0.0	0.0	0.0	1.0	1.0	5	la Nova Esquerra de l'Eixample	False	True	True
Meliá Barcelona Sarrià	0	175	1	0	0	41.390923	2.141604	2125	80	87	83	82	84	82	77	80	87	78	1	0	0	0	0	0	0	0	0	0.0	0.0	1.0	0.0	0.0	1.0	0.0	1.0	1.0	1.0	0.0	0.0	0.0	383.0	0.0	406.0	57.0	452.0	0.0	0.0	0.0	0.0	317.0	0.0	84.0	0.0	84.0	85.0	86.0	0.0	0.0	0.0	0.0	88.0	0.0	1.0	1.0	1.0	0.0	1.0	0.0	1.0	1.0	1.0	1.0	0.0	0.0	0.0	0.0	0.0	0.0	0.0	0.0	1.0	1.0	5	Avinguda de Sarrià	False	False	False
Hesperia Tower	0	118	0	0	0	41.34613	2.108495	3807	79	90	90	80	80	88	70	89	86	83	0	1	0	0	0	1	0	0	0	0.0	0.0	0.0	0.0	0.0	0.0	0.0	1.0	0.0	1.0	0.0	0.0	0.0	383.0	0.0	406.0	57.0	452.0	0.0	71.0	0.0	0.0	0.0	0.0	85.0	0.0	86.0	85.0	86.0	0.0	90.0	0.0	0.0	0.0	0.0	1.0	1.0	1.0	0.0	1.0	1.0	1.0	1.0	1.0	1.0	0.0	0.0	0.0	0.0	0.0	0.0	0.0	0.0	1.0	1.0	5	outskirt	False	False	False
Axel Hotel Barcelona & Urban Spa	0	119	1	0	0	41.387436	2.160425	2195	69	82	78	77	72	78	89	78	82	74	0	1	0	0	0	1	0	0	0	0.0	0.0	0.0	0.0	0.0	1.0	0.0	0.0	0.0	1.0	1.0	0.0	0.0	0.0	0.0	406.0	57.0	452.0	654.0	71.0	0.0	0.0	0.0	0.0	0.0	0.0	80.0	82.0	76.0	86.0	78.0	0.0	0.0	0.0	0.0	1.0	1.0	1.0	1.0	1.0	1.0	1.0	1.0	1.0	1.0	0.0	0.0	0.0	0.0	0.0	0.0	0.0	0.0	1.0	1.0	5	l'Antiga Esquerra de l'Eixample	False	True	True
Hotel Galeon Pavillon Superior	0	56	0	0	0	41.238262	1.808184	2050	82	90	86	85	82	82	91	84	89	89	1	0	0	1	0	0	0	0	0	1.0	0.0	0.0	1.0	0.0	1.0	0.0	1.0	0.0	0.0	0.0	0.0	0.0	383.0	0.0	406.0	57.0	452.0	0.0	0.0	0.0	0.0	0.0	0.0	82.0	0.0	90.0	85.0	90.0	0.0	0.0	0.0	0.0	0.0	0.0	1.0	1.0	0.0	0.0	1.0	1.0	1.0	0.0	1.0	1.0	0.0	0.0	0.0	0.0	0.0	0.0	0.0	0.0	1.0	1.0	5	outskirt	False	False	False
Barcelona Princess	0	108	1	0	0	41.411125	2.219004	5620	78	89	86	82	82	80	80	85	85	82	1	0	0	0	0	0	0	0	0	0.0	0.0	0.0	0.0	0.0	1.0	0.0	1.0	0.0	1.0	0.0	0.0	0.0	383.0	0.0	406.0	57.0	452.0	0.0	0.0	0.0	0.0	317.0	0.0	86.0	0.0	86.0	87.0	86.0	0.0	0.0	0.0	0.0	85.0	0.0	1.0	1.0	1.0	1.0	1.0	1.0	1.0	1.0	1.0	1.0	0.0	0.0	0.0	0.0	0.0	0.0	0.0	0.0	1.0	1.0	5	Diagonal Mar	False	False	False
Mariano Cubí	0	122	0	0	0	41.398201	2.149479	1754	75	86	81	81	79	80	82	80	87	81	0	0	0	0	0	0	0	0	1	0.0	0.0	1.0	0.0	0.0	0.0	0.0	0.0	0.0	1.0	0.0	0.0	0.0	383.0	0.0	406.0	57.0	452.0	0.0	0.0	0.0	0.0	317.0	0.0	78.0	0.0	80.0	87.0	76.0	0.0	0.0	0.0	0.0	75.0	0.0	1.0	1.0	0.0	1.0	1.0	0.0	1.0	0.0	1.0	1.0	0.0	0.0	0.0	0.0	0.0	0.0	0.0	0.0	0.0	0.0	1	Sant Gervasi - Galvany	False	True	False
Món	0	67	0	0	0	41.725174	1.823352	830	75	89	90	85	81	83	86	86	87	83	1	0	0	0	0	1	0	0	1	0.0	0.0	0.0	0.0	0.0	0.0	0.0	1.0	0.0	0.0	0.0	0.0	0.0	383.0	0.0	406.0	57.0	452.0	0.0	0.0	0.0	0.0	0.0	0.0	90.0	0.0	90.0	90.0	92.0	0.0	0.0	0.0	0.0	0.0	0.0	1.0	1.0	0.0	0.0	1.0	1.0	1.0	0.0	0.0	1.0	0.0	0.0	0.0	0.0	0.0	0.0	0.0	0.0	0.0	0.0	5	outskirt	False	False	False
NH Barcelona Centro	0	104	0	0	0	41.384644	2.172976	2650	78	86	82	80	79	83	94	81	85	80	0	0	1	1	0	1	0	0	0	0.0	0.0	0.0	1.0	0.0	1.0	0.0	1.0	0.0	1.0	0.0	1.0	0.0	0.0	0.0	406.0	57.0	452.0	654.0	0.0	0.0	0.0	317.0	0.0	0.0	0.0	84.0	87.0	84.0	84.0	0.0	0.0	0.0	87.0	0.0	1.0	0.0	0.0	1.0	1.0	0.0	0.0	0.0	1.0	1.0	0.0	0.0	0.0	0.0	0.0	0.0	0.0	0.0	1.0	1.0	5	el Gòtic	True	False	True
Ilunion Barcelona	0	99	0	0	0	41.399265	2.201922	4981	77	85	82	79	76	84	76	83	81	81	1	0	0	0	0	0	0	0	1	0.0	0.0	0.0	0.0	0.0	0.0	0.0	1.0	0.0	1.0	0.0	0.0	0.0	383.0	0.0	406.0	57.0	452.0	0.0	0.0	0.0	0.0	317.0	0.0	84.0	0.0	82.0	78.0	80.0	0.0	0.0	0.0	0.0	86.0	0.0	1.0	1.0	1.0	0.0	1.0	1.0	1.0	0.0	1.0	1.0	0.0	0.0	0.0	0.0	0.0	0.0	0.0	0.0	1.0	1.0	5	el Poblenou	False	False	False
Apartamentos Atica	0	65	0	0	0	41.411289	2.173334	895	0	83	80	78	0	0	84	80	82	80	1	0	0	0	0	0	0	1	0	0.0	0.0	0.0	0.0	0.0	0.0	0.0	0.0	0.0	1.0	0.0	0.0	0.0	0.0	0.0	0.0	57.0	0.0	0.0	0.0	0.0	0.0	0.0	0.0	0.0	0.0	0.0	80.0	0.0	0.0	0.0	0.0	0.0	0.0	0.0	1.0	0.0	0.0	0.0	0.0	0.0	0.0	0.0	1.0	1.0	0.0	0.0	0.0	0.0	0.0	0.0	0.0	0.0	0.0	0.0	1	el Baix Guinardó	False	True	False
Travelodge Barcelona Hospitalet	0	101	0	0	0	41.3522	2.1341	2400	70	77	71	67	68	72	68	72	76	74	0	1	0	1	0	0	0	0	0	0.0	0.0	0.0	0.0	0.0	0.0	0.0	1.0	0.0	0.0	0.0	0.0	0.0	383.0	0.0	406.0	57.0	452.0	0.0	0.0	0.0	0.0	317.0	0.0	62.0	0.0	70.0	83.0	70.0	0.0	0.0	0.0	0.0	72.0	0.0	1.0	1.0	0.0	0.0	1.0	0.0	0.0	0.0	1.0	1.0	0.0	0.0	0.0	0.0	0.0	0.0	0.0	0.0	0.0	0.0	5	outskirt	False	False	False
Montemar Maritim	0	50	0	0	0	41.629986	2.71535	2024	78	87	84	81	84	80	85	86	87	86	1	0	0	1	0	0	0	0	0	0.0	0.0	1.0	0.0	0.0	0.0	0.0	0.0	0.0	0.0	0.0	0.0	0.0	383.0	0.0	406.0	57.0	452.0	0.0	0.0	0.0	0.0	317.0	0.0	72.0	0.0	88.0	90.0	90.0	0.0	0.0	0.0	0.0	91.0	0.0	1.0	1.0	0.0	0.0	1.0	1.0	1.0	0.0	1.0	1.0	0.0	0.0	0.0	0.0	0.0	0.0	0.0	0.0	1.0	1.0	5	outskirt	False	False	False
Hilton Diagonal Mar Barcelona	0	146	0	0	0	41.408432	2.217821	1994	76	89	87	82	81	86	82	85	86	75	1	0	0	0	0	1	0	0	0	0.0	0.0	1.0	0.0	0.0	1.0	0.0	1.0	1.0	1.0	0.0	0.0	0.0	383.0	0.0	406.0	57.0	452.0	654.0	0.0	0.0	0.0	0.0	0.0	87.0	0.0	88.0	85.0	84.0	84.0	0.0	0.0	0.0	0.0	0.0	1.0	1.0	1.0	0.0	1.0	1.0	1.0	0.0	1.0	1.0	0.0	0.0	0.0	0.0	0.0	0.0	0.0	0.0	0.0	1.0	5	Diagonal Mar i el Front Marítim del Poblenou	False	False	False
San Sebastian Playa	0	58	0	0	0	41.236401	1.8147	1152	74	85	82	77	72	83	93	80	80	74	1	0	0	0	0	0	0	0	0	0.0	0.0	0.0	0.0	0.0	0.0	0.0	0.0	0.0	1.0	0.0	0.0	0.0	383.0	0.0	406.0	57.0	452.0	0.0	0.0	0.0	0.0	317.0	0.0	77.0	0.0	86.0	58.0	84.0	0.0	0.0	0.0	0.0	85.0	0.0	1.0	1.0	1.0	1.0	1.0	1.0	1.0	0.0	1.0	1.0	0.0	0.0	0.0	0.0	0.0	0.0	0.0	0.0	1.0	1.0	5	outskirt	False	False	False
Catalonia Sagrada Familia	0	90	0	0	0	41.4076	2.1851	933	79	82	78	79	79	72	77	73	80	76	1	0	0	1	0	0	0	0	1	0.0	0.0	0.0	0.0	0.0	0.0	0.0	0.0	0.0	1.0	0.0	0.0	0.0	383.0	0.0	406.0	57.0	452.0	0.0	0.0	0.0	0.0	317.0	0.0	72.0	0.0	74.0	87.0	74.0	0.0	0.0	0.0	0.0	74.0	0.0	1.0	1.0	1.0	1.0	1.0	0.0	1.0	0.0	1.0	1.0	0.0	0.0	0.0	0.0	0.0	0.0	0.0	0.0	1.0	1.0	5	la Vila Olímpica	False	True	False
Hotel Cortes	0	85	0	0	0	41.38549	2.171645	217	0	82	75	75	73	77	94	75	82	80	1	0	0	1	1	1	0	0	1	0.0	0.0	0.0	0.0	0.0	0.0	0.0	0.0	0.0	0.0	0.0	0.0	0.0	383.0	0.0	406.0	57.0	452.0	0.0	0.0	0.0	0.0	317.0	0.0	68.0	0.0	78.0	85.0	80.0	0.0	0.0	0.0	0.0	79.0	0.0	0.0	1.0	0.0	0.0	1.0	0.0	1.0	0.0	1.0	1.0	0.0	0.0	0.0	0.0	0.0	0.0	0.0	0.0	1.0	1.0	5	el Gòtic	True	False	True
Abapart Nápols	0	99	0	0	0	41.395199	2.1793	1236	0	86	84	82	86	81	86	84	83	85	1	0	0	0	1	0	0	0	1	0.0	0.0	0.0	0.0	0.0	0.0	0.0	0.0	0.0	0.0	0.0	0.0	0.0	383.0	0.0	406.0	57.0	452.0	0.0	0.0	0.0	0.0	317.0	0.0	78.0	0.0	86.0	87.0	88.0	0.0	0.0	0.0	0.0	82.0	0.0	1.0	0.0	0.0	0.0	1.0	0.0	0.0	0.0	1.0	0.0	0.0	0.0	0.0	0.0	0.0	0.0	0.0	0.0	0.0	0.0	1	el Fort Pienc	False	True	True
Holiday Inn Express Barcelona City	0	89	0	0	0	41.401299	2.197822	4034	72	82	75	77	73	78	74	76	82	80	1	0	0	1	0	0	0	0	0	0.0	0.0	0.0	0.0	0.0	0.0	0.0	0.0	0.0	1.0	0.0	0.0	0.0	383.0	0.0	406.0	57.0	452.0	0.0	0.0	0.0	0.0	317.0	0.0	77.0	0.0	78.0	75.0	78.0	0.0	0.0	0.0	0.0	82.0	0.0	1.0	0.0	0.0	0.0	1.0	0.0	0.0	0.0	1.0	1.0	0.0	0.0	0.0	0.0	0.0	0.0	0.0	0.0	0.0	0.0	5	el Parc i la Llacuna del Poblenou	False	False	False
Zenit Borrell	0	97	1	0	0	41.385944	2.15144	2051	78	87	80	75	79	85	79	77	83	80	1	0	0	0	0	1	0	0	1	0.0	0.0	0.0	0.0	0.0	0.0	0.0	1.0	0.0	1.0	0.0	0.0	0.0	383.0	0.0	406.0	57.0	452.0	0.0	0.0	0.0	0.0	317.0	0.0	78.0	0.0	84.0	72.0	80.0	0.0	0.0	0.0	0.0	85.0	0.0	1.0	1.0	0.0	1.0	1.0	0.0	1.0	0.0	1.0	1.0	0.0	0.0	0.0	0.0	0.0	0.0	0.0	0.0	0.0	0.0	5	la Nova Esquerra de l'Eixample	False	True	True
Apartamentos Royal Marina Gardens	0	59	0	0	0	41.267944	1.992855	545	0	82	78	81	76	79	82	79	87	81	1	0	0	0	0	0	1	0	1	1.0	0.0	0.0	0.0	0.0	0.0	0.0	0.0	0.0	0.0	0.0	0.0	0.0	383.0	0.0	406.0	57.0	452.0	0.0	0.0	0.0	0.0	0.0	0.0	83.0	0.0	86.0	88.0	86.0	0.0	0.0	0.0	0.0	0.0	0.0	1.0	0.0	0.0	0.0	1.0	1.0	0.0	0.0	1.0	1.0	0.0	0.0	0.0	0.0	0.0	0.0	0.0	0.0	1.0	1.0	1	outskirt	False	False	False
Acta Atrium Palace	0	137	0	0	0	41.3909	2.1708	1178	77	89	83	81	78	83	92	82	89	80	1	0	0	0	0	0	0	0	0	0.0	0.0	0.0	0.0	0.0	1.0	0.0	0.0	0.0	1.0	0.0	0.0	0.0	383.0	0.0	406.0	57.0	452.0	0.0	0.0	0.0	0.0	317.0	0.0	77.0	0.0	88.0	85.0	88.0	0.0	0.0	0.0	0.0	87.0	0.0	1.0	1.0	0.0	0.0	1.0	1.0	1.0	1.0	1.0	1.0	0.0	0.0	0.0	0.0	0.0	0.0	0.0	0.0	0.0	0.0	5	la Dreta de l'Eixample	True	False	True
Platjador	0	112	0	0	0	41.235031	1.807696	2194	83	90	90	88	85	86	96	85	90	89	1	0	0	1	0	0	0	0	0	1.0	0.0	0.0	1.0	0.0	1.0	0.0	1.0	0.0	0.0	1.0	0.0	0.0	383.0	0.0	406.0	57.0	452.0	0.0	0.0	0.0	0.0	317.0	0.0	81.0	0.0	92.0	95.0	92.0	0.0	0.0	0.0	0.0	83.0	0.0	1.0	1.0	0.0	0.0	1.0	1.0	1.0	0.0	1.0	1.0	0.0	0.0	0.0	0.0	0.0	0.0	0.0	0.0	1.0	1.0	5	outskirt	False	False	False
Ciutadella Barcelona	0	117	0	0	0	41.383881	2.18466	1383	69	86	81	76	72	83	89	80	82	77	1	0	0	1	0	1	0	0	1	0.0	0.0	0.0	0.0	0.0	0.0	0.0	0.0	0.0	0.0	0.0	1.0	1.0	0.0	0.0	406.0	57.0	452.0	0.0	0.0	0.0	0.0	0.0	0.0	0.0	0.0	84.0	83.0	84.0	0.0	0.0	0.0	0.0	0.0	0.0	1.0	0.0	0.0	1.0	1.0	0.0	0.0	0.0	1.0	1.0	0.0	0.0	0.0	0.0	0.0	0.0	0.0	0.0	1.0	1.0	5	Santa Caterina i la Ribera	False	True	True
NH Sants Barcelona	0	73	1	0	0	41.384651	2.137717	1961	78	86	78	81	74	84	80	75	81	76	0	0	0	1	0	0	0	0	1	0.0	0.0	1.0	0.0	0.0	0.0	0.0	1.0	0.0	1.0	0.0	1.0	0.0	383.0	0.0	406.0	57.0	452.0	0.0	0.0	0.0	0.0	317.0	0.0	82.0	0.0	82.0	82.0	82.0	0.0	0.0	0.0	0.0	64.0	0.0	1.0	1.0	0.0	1.0	1.0	0.0	1.0	0.0	1.0	1.0	0.0	0.0	0.0	0.0	0.0	0.0	0.0	0.0	1.0	1.0	5	Carrer de Numància	False	False	False
Hotel Sant Antoni	0	85	0	0	0	41.399651	2.177342	2124	78	86	76	79	76	80	84	79	85	82	1	0	0	0	0	1	0	0	1	0.0	0.0	0.0	0.0	0.0	0.0	0.0	0.0	0.0	0.0	0.0	0.0	0.0	383.0	0.0	406.0	57.0	452.0	0.0	0.0	0.0	0.0	317.0	0.0	71.0	0.0	78.0	82.0	78.0	0.0	0.0	0.0	0.0	80.0	0.0	1.0	0.0	0.0	0.0	1.0	0.0	0.0	0.0	1.0	1.0	0.0	0.0	0.0	0.0	0.0	0.0	0.0	0.0	1.0	1.0	5	Carrer del Consell de Cent	False	True	False
Via Augusta	0	86	0	0	0	41.400059	2.151419	1942	78	86	77	78	78	80	84	75	85	82	1	0	0	1	0	0	0	0	1	0.0	0.0	0.0	0.0	0.0	1.0	0.0	0.0	0.0	1.0	0.0	1.0	0.0	383.0	0.0	406.0	57.0	452.0	0.0	0.0	0.0	0.0	317.0	0.0	79.0	0.0	80.0	87.0	82.0	0.0	0.0	0.0	0.0	77.0	0.0	1.0	0.0	0.0	0.0	1.0	0.0	0.0	0.0	1.0	1.0	0.0	0.0	0.0	0.0	0.0	0.0	0.0	0.0	1.0	1.0	5	Sant Gervasi	False	True	False
Pestana Arena Barcelona	0	107	1	0	1	41.376801	2.146044	2721	78	88	83	81	78	84	85	84	84	81	0	1	0	0	0	1	0	0	0	0.0	0.0	0.0	0.0	0.0	0.0	0.0	0.0	1.0	0.0	0.0	1.0	0.0	383.0	0.0	406.0	57.0	452.0	0.0	71.0	0.0	0.0	0.0	0.0	82.0	0.0	84.0	87.0	84.0	0.0	91.0	0.0	0.0	0.0	0.0	1.0	1.0	1.0	1.0	1.0	0.0	1.0	0.0	1.0	1.0	0.0	0.0	0.0	0.0	0.0	0.0	0.0	0.0	1.0	1.0	5	Hostafrancs	False	False	False
Pullman Barcelona Skipper	0	166	0	0	0	41.386002	2.1949	2939	79	91	88	84	83	89	90	87	88	79	1	0	0	0	0	0	0	0	0	0.0	0.0	1.0	0.0	0.0	0.0	0.0	1.0	0.0	1.0	0.0	0.0	1.0	0.0	0.0	406.0	57.0	452.0	0.0	71.0	0.0	0.0	317.0	0.0	0.0	0.0	90.0	87.0	90.0	0.0	88.0	0.0	0.0	86.0	0.0	1.0	1.0	1.0	1.0	1.0	1.0	1.0	1.0	1.0	1.0	0.0	0.0	0.0	0.0	0.0	0.0	0.0	0.0	1.0	0.0	5	la Barceloneta	False	True	False
Villa Olímpica Suites	0	95	0	0	0	41.397144	2.192195	3017	74	83	79	81	72	80	69	81	77	76	1	0	0	0	0	0	0	0	1	0.0	0.0	0.0	0.0	0.0	0.0	0.0	1.0	0.0	0.0	0.0	0.0	0.0	383.0	0.0	406.0	57.0	452.0	0.0	0.0	0.0	0.0	317.0	0.0	78.0	0.0	78.0	75.0	78.0	0.0	0.0	0.0	0.0	71.0	0.0	1.0	1.0	1.0	0.0	1.0	1.0	1.0	1.0	1.0	1.0	0.0	0.0	0.0	0.0	0.0	0.0	0.0	0.0	1.0	1.0	5	el Parc i la Llacuna del Poblenou	False	True	False
Travelodge Poblenou	0	58	0	0	0	41.399963	2.201012	1557	78	85	76	73	76	78	79	75	78	80	0	0	0	0	0	0	0	0	1	0.0	0.0	0.0	0.0	0.0	0.0	0.0	0.0	0.0	1.0	0.0	0.0	0.0	383.0	0.0	406.0	57.0	452.0	654.0	0.0	0.0	0.0	0.0	0.0	74.0	0.0	76.0	75.0	76.0	94.0	0.0	0.0	0.0	0.0	0.0	1.0	1.0	0.0	0.0	1.0	0.0	1.0	0.0	1.0	1.0	0.0	0.0	0.0	0.0	0.0	0.0	0.0	0.0	0.0	1.0	5	el Poblenou	False	False	False
Catalonia Roma	0	90	0	0	0	41.381401	2.1448	1023	77	83	75	77	80	77	80	71	79	75	0	0	0	1	0	1	0	0	0	0.0	0.0	0.0	1.0	0.0	0.0	0.0	0.0	0.0	1.0	0.0	0.0	0.0	383.0	0.0	406.0	57.0	452.0	0.0	0.0	0.0	0.0	317.0	0.0	69.0	0.0	78.0	85.0	78.0	0.0	0.0	0.0	0.0	80.0	0.0	1.0	1.0	0.0	0.0	1.0	0.0	0.0	0.0	1.0	1.0	0.0	0.0	0.0	0.0	0.0	0.0	0.0	0.0	1.0	1.0	5	la Nova Esquerra de l'Eixample	False	False	True
Hotel Internacional	0	39	0	0	0	41.610935	2.651972	716	73	76	69	70	70	71	85	70	77	77	1	0	0	1	0	0	0	0	0	0.0	0.0	0.0	0.0	0.0	0.0	0.0	1.0	0.0	0.0	0.0	0.0	0.0	383.0	0.0	406.0	57.0	452.0	0.0	0.0	0.0	0.0	317.0	0.0	75.0	0.0	70.0	67.0	74.0	0.0	0.0	0.0	0.0	78.0	0.0	0.0	1.0	0.0	1.0	1.0	1.0	1.0	0.0	1.0	1.0	0.0	0.0	0.0	0.0	0.0	0.0	0.0	0.0	1.0	1.0	5	outskirt	False	False	False
Grums Barcelona	0	114	1	0	0	41.372463	2.172383	2380	71	86	83	78	75	83	80	81	83	77	0	0	1	0	0	1	0	0	1	0.0	0.0	0.0	0.0	0.0	0.0	0.0	0.0	0.0	1.0	0.0	0.0	0.0	383.0	0.0	406.0	57.0	452.0	0.0	0.0	0.0	0.0	317.0	0.0	79.0	0.0	82.0	77.0	82.0	0.0	0.0	0.0	0.0	71.0	0.0	1.0	0.0	0.0	0.0	1.0	0.0	1.0	0.0	1.0	1.0	0.0	0.0	0.0	0.0	0.0	0.0	0.0	0.0	1.0	1.0	5	el Poble-sec	False	True	False
Aqua Onabrava	0	48	0	0	0	41.631802	2.7176	2867	78	88	84	84	79	85	84	84	87	85	1	0	0	0	0	1	0	0	0	1.0	0.0	1.0	0.0	0.0	0.0	0.0	0.0	0.0	1.0	0.0	0.0	0.0	383.0	0.0	406.0	57.0	452.0	0.0	0.0	0.0	0.0	317.0	0.0	84.0	0.0	86.0	87.0	86.0	0.0	0.0	0.0	0.0	86.0	0.0	1.0	1.0	1.0	0.0	1.0	1.0	1.0	1.0	1.0	1.0	0.0	0.0	0.0	0.0	0.0	0.0	0.0	0.0	0.0	1.0	5	outskirt	False	False	False
Hotel Rekord	0	92	0	0	0	41.398602	2.1438	623	0	87	82	79	73	82	83	81	89	81	0	0	0	0	0	1	0	0	0	0.0	0.0	0.0	0.0	0.0	0.0	0.0	0.0	0.0	0.0	0.0	0.0	0.0	383.0	0.0	406.0	57.0	452.0	0.0	0.0	0.0	0.0	0.0	0.0	84.0	0.0	86.0	57.0	88.0	0.0	0.0	0.0	0.0	0.0	0.0	1.0	1.0	0.0	0.0	1.0	0.0	0.0	0.0	1.0	1.0	0.0	0.0	0.0	0.0	0.0	0.0	0.0	0.0	1.0	1.0	5	Sant Gervasi - Galvany	False	True	False
Barna House B&B	0	81	0	0	0	41.401154	2.165288	564	0	89	81	83	80	0	87	83	88	83	1	0	0	1	0	0	0	0	0	0.0	0.0	1.0	0.0	0.0	1.0	0.0	0.0	0.0	1.0	0.0	0.0	0.0	0.0	0.0	0.0	57.0	0.0	0.0	0.0	0.0	0.0	0.0	0.0	0.0	0.0	0.0	97.0	0.0	0.0	0.0	0.0	0.0	0.0	0.0	1.0	0.0	0.0	0.0	1.0	0.0	0.0	0.0	1.0	1.0	0.0	0.0	0.0	0.0	0.0	0.0	0.0	0.0	1.0	1.0	2	el Camp d'en Grassot	False	True	False
Aspasios Gran Via Suites	0	267	0	0	0	41.381622	2.15746	266	0	80	76	73	0	78	81	82	78	74	0	0	0	0	1	0	0	0	0	0.0	0.0	1.0	0.0	0.0	0.0	0.0	0.0	0.0	0.0	0.0	0.0	0.0	0.0	0.0	406.0	0.0	452.0	0.0	0.0	0.0	0.0	0.0	0.0	0.0	0.0	84.0	0.0	82.0	0.0	0.0	0.0	0.0	0.0	0.0	1.0	0.0	0.0	0.0	0.0	0.0	0.0	0.0	1.0	1.0	0.0	0.0	0.0	0.0	0.0	0.0	0.0	0.0	0.0	0.0	3	la Nova Esquerra de l'Eixample	False	True	True
Catalonia Atenas	0	99	0	0	0	41.4105	2.1861	4813	74	79	75	77	76	75	77	71	79	74	1	0	0	0	0	0	0	0	0	0.0	0.0	0.0	1.0	0.0	0.0	0.0	0.0	0.0	1.0	0.0	0.0	0.0	383.0	0.0	406.0	57.0	452.0	0.0	0.0	0.0	0.0	317.0	0.0	65.0	0.0	74.0	83.0	74.0	0.0	0.0	0.0	0.0	72.0	0.0	1.0	1.0	1.0	0.0	1.0	1.0	1.0	1.0	1.0	1.0	0.0	0.0	0.0	0.0	0.0	0.0	0.0	0.0	1.0	1.0	5	el Camp de l'Arpa del Clot	False	True	False
Hotel Martorell	0	42	0	0	0	41.478748	1.92118	250	72	84	81	78	76	84	74	80	83	83	1	0	0	1	0	0	0	0	1	0.0	0.0	0.0	0.0	0.0	0.0	0.0	1.0	0.0	1.0	0.0	0.0	0.0	383.0	0.0	406.0	57.0	452.0	0.0	0.0	0.0	0.0	317.0	0.0	85.0	0.0	86.0	90.0	84.0	0.0	0.0	0.0	0.0	80.0	0.0	1.0	1.0	1.0	0.0	1.0	0.0	1.0	0.0	1.0	1.0	0.0	0.0	0.0	0.0	0.0	0.0	0.0	0.0	0.0	0.0	5	outskirt	False	False	False
Eurostars Executive	0	50	0	0	0	41.511993	2.130752	1053	80	87	86	80	73	84	69	86	85	85	1	0	0	0	0	1	0	0	0	0.0	0.0	0.0	0.0	0.0	0.0	0.0	0.0	0.0	1.0	0.0	0.0	0.0	383.0	0.0	406.0	57.0	452.0	0.0	0.0	0.0	0.0	0.0	0.0	83.0	0.0	84.0	77.0	86.0	0.0	0.0	0.0	0.0	0.0	0.0	1.0	1.0	0.0	0.0	1.0	0.0	0.0	0.0	1.0	1.0	0.0	0.0	0.0	0.0	0.0	0.0	0.0	0.0	1.0	1.0	5	outskirt	False	False	False
Campus	0	58	0	0	0	41.500149	2.095621	1030	72	82	78	76	72	75	74	80	79	81	1	0	0	0	0	0	0	0	0	0.0	0.0	0.0	0.0	0.0	0.0	0.0	1.0	0.0	1.0	0.0	0.0	0.0	383.0	0.0	406.0	57.0	452.0	0.0	0.0	0.0	0.0	0.0	0.0	77.0	0.0	74.0	38.0	76.0	0.0	0.0	0.0	0.0	0.0	0.0	1.0	0.0	0.0	0.0	1.0	0.0	1.0	0.0	1.0	1.0	0.0	0.0	0.0	0.0	0.0	0.0	0.0	0.0	1.0	1.0	5	outskirt	False	False	False
Urpi	0	36	0	0	0	41.552757	2.105717	686	0	77	74	76	72	73	79	72	78	78	1	0	0	0	0	1	0	0	1	0.0	0.0	1.0	0.0	0.0	0.0	0.0	1.0	0.0	1.0	0.0	0.0	0.0	383.0	0.0	406.0	57.0	452.0	0.0	0.0	0.0	0.0	317.0	0.0	66.0	0.0	72.0	47.0	72.0	0.0	0.0	0.0	0.0	76.0	0.0	1.0	1.0	0.0	1.0	1.0	0.0	1.0	0.0	1.0	1.0	0.0	0.0	0.0	0.0	0.0	0.0	0.0	0.0	1.0	1.0	5	outskirt	False	False	False
Hotel Sidorme Barcelona	0	37	0	0	0	41.60223	2.298938	1221	70	84	78	78	71	81	74	77	87	85	1	0	1	0	0	1	0	0	0	0.0	0.0	0.0	0.0	0.0	0.0	0.0	0.0	0.0	0.0	0.0	0.0	0.0	383.0	0.0	406.0	57.0	452.0	0.0	0.0	0.0	0.0	0.0	0.0	77.0	0.0	84.0	82.0	82.0	0.0	0.0	0.0	0.0	0.0	0.0	0.0	0.0	0.0	0.0	1.0	0.0	0.0	0.0	1.0	1.0	0.0	0.0	0.0	0.0	0.0	0.0	0.0	0.0	1.0	1.0	5	outskirt	False	False	False
Milà Apartments	0	140	0	0	0	41.402405	2.160954	331	0	87	83	80	0	81	76	0	76	80	1	0	0	0	1	0	1	0	0	0.0	0.0	0.0	0.0	0.0	1.0	0.0	0.0	0.0	0.0	0.0	0.0	0.0	0.0	0.0	406.0	0.0	452.0	0.0	0.0	0.0	0.0	0.0	0.0	0.0	0.0	82.0	0.0	78.0	0.0	0.0	0.0	0.0	0.0	0.0	1.0	0.0	0.0	1.0	0.0	0.0	0.0	0.0	1.0	1.0	0.0	0.0	0.0	0.0	0.0	0.0	0.0	0.0	1.0	1.0	3	la Vila de Gràcia	False	True	False
Capri	0	50	0	0	0	41.234898	1.80333	739	73	87	80	81	76	79	92	77	93	82	1	0	0	1	0	0	0	0	1	1.0	0.0	0.0	0.0	0.0	0.0	0.0	0.0	0.0	0.0	0.0	0.0	0.0	383.0	0.0	406.0	57.0	452.0	0.0	0.0	0.0	0.0	317.0	0.0	75.0	0.0	84.0	90.0	84.0	0.0	0.0	0.0	0.0	80.0	0.0	1.0	0.0	0.0	1.0	1.0	1.0	0.0	0.0	1.0	1.0	0.0	0.0	0.0	0.0	0.0	0.0	0.0	0.0	0.0	0.0	5	outskirt	False	False	False
Vilamarí	0	122	0	0	0	41.376656	2.152486	1843	77	86	79	74	77	81	85	78	85	79	0	0	1	0	0	1	0	0	0	0.0	0.0	0.0	0.0	0.0	0.0	1.0	0.0	0.0	1.0	0.0	0.0	0.0	383.0	0.0	406.0	57.0	452.0	0.0	0.0	0.0	0.0	317.0	0.0	83.0	0.0	84.0	87.0	82.0	0.0	0.0	0.0	0.0	82.0	0.0	1.0	1.0	1.0	0.0	1.0	0.0	1.0	0.0	1.0	1.0	0.0	0.0	0.0	0.0	0.0	0.0	0.0	0.0	1.0	1.0	5	la Nova Esquerra de l'Eixample	False	True	True
Sg Costa Barcelona	0	59	0	0	0	41.267944	1.979246	435	0	77	74	77	67	73	81	79	79	74	0	0	0	0	1	0	0	0	0	0.0	0.0	0.0	0.0	0.0	0.0	0.0	0.0	0.0	0.0	0.0	0.0	0.0	383.0	0.0	406.0	57.0	452.0	0.0	0.0	0.0	0.0	0.0	0.0	69.0	0.0	76.0	68.0	78.0	0.0	0.0	0.0	0.0	0.0	0.0	1.0	0.0	1.0	0.0	1.0	1.0	0.0	0.0	0.0	0.0	0.0	0.0	0.0	0.0	0.0	0.0	0.0	0.0	0.0	0.0	1	outskirt	False	False	False
Meliá Sitges	0	130	0	0	0	41.236698	1.82354	1505	83	89	87	83	81	82	80	83	87	78	0	1	0	0	1	1	0	0	1	1.0	0.0	1.0	0.0	0.0	0.0	0.0	1.0	1.0	1.0	0.0	0.0	0.0	383.0	0.0	406.0	57.0	452.0	0.0	0.0	0.0	0.0	317.0	0.0	80.0	0.0	86.0	87.0	88.0	0.0	0.0	0.0	0.0	93.0	0.0	1.0	1.0	0.0	0.0	1.0	1.0	1.0	0.0	1.0	1.0	0.0	0.0	0.0	0.0	0.0	0.0	0.0	0.0	1.0	1.0	5	outskirt	False	False	False
Hotel Playafels	0	93	0	0	0	41.280018	1.976629	1371	72	79	78	73	74	74	86	75	78	74	1	0	0	0	0	1	0	0	0	1.0	0.0	0.0	0.0	0.0	1.0	0.0	0.0	0.0	1.0	0.0	0.0	0.0	383.0	0.0	406.0	57.0	452.0	0.0	0.0	0.0	0.0	317.0	0.0	79.0	0.0	76.0	57.0	76.0	0.0	0.0	0.0	0.0	78.0	0.0	1.0	1.0	0.0	0.0	1.0	1.0	1.0	0.0	1.0	1.0	0.0	0.0	0.0	0.0	0.0	0.0	0.0	0.0	0.0	0.0	5	outskirt	False	False	False
Barcelona House	0	80	0	0	0	41.379372	2.176073	1426	61	83	74	75	67	80	90	78	78	78	1	0	0	0	0	1	0	0	1	0.0	0.0	0.0	0.0	0.0	1.0	0.0	0.0	0.0	1.0	0.0	0.0	0.0	0.0	0.0	406.0	57.0	452.0	0.0	0.0	0.0	0.0	317.0	434.0	0.0	0.0	76.0	87.0	74.0	0.0	0.0	0.0	0.0	81.0	85.0	1.0	1.0	0.0	1.0	1.0	0.0	0.0	0.0	1.0	1.0	0.0	0.0	0.0	0.0	0.0	0.0	0.0	0.0	1.0	1.0	5	el Gòtic	False	True	True
Sunotel Club Central	0	86	0	0	0	41.387932	2.156806	719	72	84	75	78	75	77	83	73	84	77	1	0	0	0	0	0	0	0	0	0.0	0.0	0.0	0.0	0.0	0.0	0.0	1.0	0.0	1.0	0.0	0.0	0.0	0.0	0.0	406.0	57.0	452.0	654.0	0.0	0.0	0.0	0.0	0.0	0.0	0.0	80.0	87.0	78.0	74.0	0.0	0.0	0.0	0.0	0.0	1.0	1.0	0.0	0.0	1.0	1.0	1.0	0.0	1.0	1.0	0.0	0.0	0.0	0.0	0.0	0.0	0.0	0.0	1.0	1.0	5	la Sagrada Família	False	True	True
Soler	0	31	0	0	1	41.745316	1.805433	115	0	85	80	78	78	0	81	81	87	82	0	0	0	1	0	1	0	0	0	0.0	0.0	1.0	0.0	0.0	0.0	0.0	0.0	0.0	1.0	0.0	0.0	0.0	0.0	0.0	0.0	0.0	0.0	0.0	0.0	0.0	0.0	0.0	0.0	0.0	0.0	0.0	0.0	0.0	0.0	0.0	0.0	0.0	0.0	0.0	1.0	1.0	0.0	0.0	0.0	0.0	1.0	0.0	1.0	1.0	0.0	0.0	0.0	0.0	0.0	0.0	0.0	0.0	1.0	1.0	4	outskirt	False	False	False
Lloret Ramblas	0	105	0	0	0	41.384865	2.170127	4212	76	81	73	75	76	77	94	72	84	80	1	0	0	1	0	0	0	0	1	0.0	0.0	0.0	0.0	0.0	0.0	0.0	0.0	0.0	0.0	0.0	0.0	0.0	383.0	0.0	406.0	57.0	0.0	0.0	0.0	0.0	0.0	0.0	0.0	76.0	0.0	60.0	82.0	0.0	0.0	0.0	0.0	0.0	0.0	0.0	1.0	0.0	0.0	0.0	0.0	0.0	1.0	0.0	0.0	1.0	0.0	0.0	0.0	0.0	0.0	0.0	0.0	0.0	0.0	0.0	5	Barri Gòtic	True	False	True
Ciutat Vella	0	95	0	0	1	41.385086	2.166423	306	75	86	78	78	71	80	93	78	86	82	1	0	0	1	0	1	0	0	1	0.0	0.0	0.0	0.0	0.0	0.0	0.0	0.0	0.0	0.0	0.0	0.0	0.0	383.0	0.0	406.0	57.0	452.0	0.0	0.0	0.0	0.0	317.0	0.0	80.0	0.0	80.0	88.0	82.0	0.0	0.0	0.0	0.0	84.0	0.0	1.0	0.0	0.0	0.0	0.0	0.0	0.0	0.0	1.0	1.0	0.0	0.0	0.0	0.0	0.0	0.0	0.0	0.0	1.0	1.0	5	el Raval	True	False	True
Ciutat Barcelona	0	105	0	0	0	41.3857	2.181	994	78	87	79	81	77	81	91	79	85	81	1	0	0	1	0	0	0	0	1	0.0	0.0	0.0	0.0	0.0	0.0	0.0	0.0	0.0	1.0	0.0	0.0	0.0	383.0	0.0	406.0	57.0	452.0	0.0	0.0	0.0	0.0	317.0	0.0	79.0	0.0	82.0	90.0	82.0	0.0	0.0	0.0	0.0	85.0	0.0	1.0	0.0	0.0	0.0	1.0	1.0	1.0	1.0	1.0	1.0	0.0	0.0	0.0	0.0	0.0	0.0	0.0	0.0	1.0	1.0	5	Santa Caterina i la Ribera	False	True	True
Avenida Sofía Hotel & Spa 	0	125	0	0	0	41.234718	1.804027	887	74	87	85	82	78	85	90	81	77	75	0	0	0	0	0	1	0	0	0	1.0	0.0	0.0	0.0	0.0	0.0	0.0	1.0	0.0	1.0	0.0	0.0	0.0	383.0	0.0	406.0	57.0	452.0	0.0	71.0	0.0	0.0	0.0	0.0	82.0	0.0	86.0	88.0	84.0	0.0	94.0	0.0	0.0	0.0	0.0	1.0	1.0	1.0	0.0	1.0	1.0	1.0	1.0	1.0	1.0	0.0	0.0	0.0	0.0	0.0	0.0	0.0	0.0	1.0	1.0	5	outskirt	False	False	False
The Level at Meliá Barcelona Sky	0	146	0	0	0	41.406254	2.200565	767	72	83	85	81	81	77	76	81	87	79	1	0	0	0	0	0	0	0	0	0.0	0.0	0.0	0.0	0.0	1.0	1.0	1.0	1.0	1.0	0.0	1.0	0.0	383.0	0.0	406.0	57.0	452.0	0.0	0.0	0.0	0.0	0.0	0.0	86.0	0.0	84.0	83.0	82.0	0.0	0.0	0.0	0.0	0.0	0.0	1.0	1.0	1.0	0.0	1.0	1.0	1.0	1.0	1.0	1.0	0.0	0.0	0.0	0.0	0.0	0.0	0.0	0.0	1.0	1.0	5	el Poblenou	False	False	False
Crowne Plaza Barcelona	0	166	0	0	0	41.372818	2.154946	3585	75	91	91	87	85	88	85	90	88	83	1	1	0	0	0	1	0	0	0	0.0	0.0	1.0	0.0	0.0	1.0	0.0	1.0	1.0	1.0	0.0	0.0	0.0	383.0	0.0	406.0	57.0	452.0	0.0	71.0	0.0	0.0	0.0	0.0	83.0	0.0	90.0	93.0	92.0	0.0	92.0	0.0	0.0	0.0	0.0	1.0	1.0	1.0	0.0	1.0	0.0	1.0	1.0	1.0	1.0	0.0	0.0	0.0	0.0	0.0	0.0	0.0	0.0	1.0	1.0	5	el Poble-sec	False	True	False
Miramar	0	50	0	0	1	41.450321	2.253715	705	0	79	71	70	78	76	83	73	80	74	1	0	0	1	0	1	0	0	0	0.0	0.0	1.0	0.0	0.0	0.0	0.0	0.0	0.0	1.0	0.0	0.0	0.0	383.0	0.0	406.0	57.0	452.0	0.0	0.0	0.0	0.0	317.0	0.0	72.0	0.0	54.0	78.0	80.0	0.0	0.0	0.0	0.0	90.0	0.0	1.0	0.0	0.0	0.0	1.0	0.0	1.0	0.0	1.0	1.0	0.0	0.0	0.0	0.0	0.0	0.0	0.0	0.0	1.0	1.0	5	outskirt	False	False	False
Vilana	0	44	0	0	0	41.4048	2.1287	392	75	84	81	79	0	80	79	77	85	76	0	1	0	0	0	1	0	0	1	0.0	0.0	1.0	0.0	0.0	1.0	0.0	0.0	0.0	1.0	0.0	0.0	0.0	0.0	0.0	406.0	57.0	452.0	0.0	0.0	0.0	0.0	0.0	0.0	0.0	0.0	80.0	73.0	80.0	0.0	0.0	0.0	0.0	0.0	0.0	1.0	0.0	1.0	0.0	1.0	0.0	1.0	0.0	1.0	1.0	0.0	0.0	0.0	0.0	0.0	0.0	0.0	0.0	1.0	1.0	5	Sant Gervasi	False	False	False
Bel Air Hotel	0	89	0	0	0	41.26553	1.976377	1284	75	86	84	79	78	82	88	83	85	79	0	1	0	0	0	0	0	0	1	1.0	0.0	0.0	0.0	0.0	1.0	0.0	0.0	0.0	1.0	0.0	0.0	0.0	383.0	0.0	406.0	57.0	452.0	0.0	71.0	0.0	0.0	0.0	0.0	87.0	0.0	86.0	82.0	86.0	0.0	84.0	0.0	0.0	0.0	0.0	1.0	1.0	0.0	0.0	1.0	1.0	1.0	0.0	1.0	1.0	0.0	0.0	0.0	0.0	0.0	0.0	0.0	0.0	1.0	1.0	5	outskirt	False	False	False
Urh Ciutat De Mataro	0	51	0	0	0	41.531338	2.436517	1107	77	82	80	78	82	80	74	81	80	79	0	0	1	1	0	1	0	0	0	1.0	0.0	0.0	0.0	0.0	1.0	0.0	1.0	0.0	1.0	0.0	1.0	0.0	383.0	0.0	406.0	57.0	452.0	0.0	0.0	0.0	0.0	317.0	0.0	75.0	0.0	82.0	80.0	80.0	0.0	0.0	0.0	0.0	86.0	0.0	1.0	1.0	1.0	1.0	1.0	0.0	1.0	1.0	1.0	1.0	0.0	0.0	0.0	0.0	0.0	0.0	0.0	0.0	1.0	1.0	5	outskirt	False	False	False
Evenia Rocafort	0	108	0	0	0	41.376251	2.157124	1599	74	85	77	80	76	81	84	77	84	80	1	0	0	0	0	0	0	0	0	0.0	0.0	0.0	0.0	0.0	0.0	0.0	0.0	0.0	1.0	0.0	0.0	0.0	383.0	0.0	406.0	57.0	452.0	0.0	0.0	0.0	0.0	317.0	0.0	76.0	0.0	80.0	83.0	78.0	0.0	0.0	0.0	0.0	80.0	0.0	1.0	1.0	0.0	0.0	1.0	0.0	1.0	0.0	1.0	1.0	0.0	0.0	0.0	0.0	0.0	0.0	0.0	0.0	1.0	1.0	5	Sant Antoni	False	True	True
Park Hotel Barcelona	0	126	0	0	0	41.384102	2.1842	2644	0	84	77	78	78	79	91	78	82	79	0	0	1	1	0	1	0	0	1	0.0	0.0	0.0	0.0	0.0	0.0	0.0	1.0	0.0	1.0	0.0	0.0	0.0	383.0	0.0	406.0	57.0	452.0	0.0	0.0	0.0	0.0	317.0	0.0	77.0	0.0	82.0	80.0	80.0	0.0	0.0	0.0	0.0	79.0	0.0	1.0	1.0	0.0	1.0	1.0	0.0	1.0	0.0	1.0	1.0	0.0	0.0	0.0	0.0	0.0	0.0	0.0	0.0	0.0	0.0	5	Santa Caterina i la Ribera	False	True	True
Leonardo Hotel Barcelona Las Ramblas	0	189	0	0	0	41.380199	2.1711	1486	75	86	79	80	63	81	89	80	83	80	1	0	0	0	0	0	0	0	0	0.0	0.0	0.0	1.0	0.0	0.0	0.0	0.0	0.0	1.0	0.0	0.0	0.0	383.0	0.0	406.0	57.0	452.0	0.0	0.0	0.0	0.0	317.0	0.0	86.0	0.0	76.0	82.0	76.0	0.0	0.0	0.0	0.0	81.0	0.0	1.0	0.0	0.0	1.0	0.0	1.0	0.0	0.0	1.0	1.0	0.0	0.0	0.0	0.0	0.0	0.0	0.0	0.0	1.0	1.0	5	el Raval	False	True	True
La Niña	0	69	0	0	1	41.234329	1.80533	669	78	86	80	78	76	78	94	74	82	76	1	0	0	1	0	0	0	0	0	0.0	0.0	0.0	0.0	0.0	0.0	0.0	0.0	0.0	0.0	0.0	0.0	0.0	383.0	0.0	406.0	57.0	452.0	0.0	0.0	0.0	0.0	317.0	0.0	83.0	0.0	82.0	75.0	82.0	0.0	0.0	0.0	0.0	70.0	0.0	0.0	1.0	0.0	1.0	1.0	1.0	0.0	0.0	1.0	1.0	0.0	0.0	0.0	0.0	0.0	0.0	0.0	0.0	1.0	1.0	5	outskirt	False	False	False
El Xalet	0	70	0	0	0	41.238335	1.808922	546	0	88	83	83	0	0	89	78	85	85	1	0	0	0	0	1	0	0	0	0.0	0.0	0.0	0.0	0.0	1.0	0.0	0.0	0.0	0.0	0.0	0.0	0.0	0.0	0.0	0.0	57.0	0.0	0.0	0.0	0.0	0.0	0.0	0.0	0.0	0.0	0.0	38.0	0.0	0.0	0.0	0.0	0.0	0.0	0.0	1.0	1.0	0.0	1.0	1.0	1.0	1.0	0.0	1.0	1.0	0.0	0.0	0.0	0.0	0.0	0.0	0.0	0.0	0.0	0.0	5	outskirt	False	False	False
Torre Catalunya Gran Hotel	0	129	1	0	1	41.379669	2.142675	3428	80	89	88	83	78	84	86	86	89	82	1	0	0	0	0	0	0	0	0	0.0	0.0	0.0	0.0	0.0	0.0	0.0	1.0	1.0	1.0	0.0	0.0	0.0	383.0	0.0	406.0	57.0	452.0	654.0	0.0	0.0	0.0	0.0	0.0	87.0	0.0	90.0	88.0	88.0	84.0	0.0	0.0	0.0	0.0	0.0	1.0	1.0	1.0	0.0	1.0	0.0	1.0	1.0	1.0	1.0	0.0	0.0	0.0	0.0	0.0	0.0	0.0	0.0	0.0	0.0	5	la Nova Esquerra de l'Eixample	False	False	True
Barcelona Universal	0	149	0	0	0	41.374802	2.168	8661	80	91	86	83	78	88	86	86	88	84	1	0	0	0	0	0	0	0	0	0.0	0.0	0.0	0.0	0.0	0.0	0.0	0.0	0.0	0.0	0.0	0.0	0.0	383.0	0.0	406.0	57.0	452.0	0.0	0.0	0.0	0.0	317.0	0.0	83.0	0.0	88.0	90.0	86.0	0.0	0.0	0.0	0.0	84.0	0.0	1.0	1.0	1.0	0.0	1.0	1.0	1.0	0.0	1.0	1.0	0.0	0.0	0.0	0.0	0.0	0.0	0.0	0.0	0.0	0.0	5	el Raval	False	True	True
Hotel Praktik Garden	0	87	0	0	0	41.393787	2.171348	724	67	87	79	79	70	80	87	77	84	81	1	1	0	1	0	0	0	0	0	0.0	0.0	0.0	0.0	0.0	0.0	0.0	0.0	0.0	0.0	0.0	0.0	0.0	383.0	0.0	406.0	57.0	452.0	0.0	0.0	0.0	0.0	317.0	0.0	75.0	0.0	82.0	85.0	82.0	0.0	0.0	0.0	0.0	86.0	0.0	1.0	0.0	0.0	0.0	0.0	0.0	0.0	0.0	1.0	1.0	0.0	0.0	0.0	0.0	0.0	0.0	0.0	0.0	0.0	0.0	5	la Dreta de l'Eixample	True	False	True
Khronos	0	93	0	0	0	41.39555	2.17731	782	0	89	81	82	76	82	89	82	91	85	0	0	0	0	1	0	0	0	1	0.0	0.0	0.0	0.0	0.0	1.0	0.0	0.0	0.0	0.0	0.0	0.0	0.0	0.0	0.0	406.0	57.0	452.0	0.0	0.0	0.0	0.0	0.0	0.0	0.0	0.0	86.0	80.0	84.0	0.0	0.0	0.0	0.0	0.0	0.0	1.0	0.0	0.0	0.0	1.0	0.0	0.0	0.0	1.0	1.0	0.0	0.0	0.0	0.0	0.0	0.0	0.0	0.0	0.0	0.0	5	el Fort Pienc	True	False	True
Atenea Park	0	46	0	0	0	41.213963	1.720941	1359	78	86	83	81	78	86	86	82	84	82	1	0	0	1	1	0	0	0	1	1.0	0.0	0.0	0.0	0.0	0.0	0.0	0.0	0.0	1.0	0.0	0.0	0.0	383.0	0.0	406.0	57.0	452.0	0.0	0.0	0.0	0.0	317.0	0.0	83.0	0.0	88.0	83.0	84.0	0.0	0.0	0.0	0.0	89.0	0.0	1.0	1.0	1.0	0.0	1.0	1.0	1.0	0.0	1.0	1.0	0.0	0.0	0.0	0.0	0.0	0.0	0.0	0.0	1.0	1.0	1	outskirt	False	False	False
Hotel Barcelona Colonial	0	135	0	0	0	41.382332	2.180762	1315	65	85	78	76	69	82	91	79	81	78	1	1	0	0	0	1	0	0	1	0.0	0.0	0.0	0.0	0.0	0.0	0.0	0.0	0.0	1.0	0.0	1.0	0.0	383.0	0.0	406.0	57.0	452.0	654.0	0.0	0.0	0.0	0.0	0.0	76.0	0.0	80.0	83.0	80.0	72.0	0.0	0.0	0.0	0.0	0.0	1.0	1.0	0.0	1.0	0.0	0.0	0.0	0.0	1.0	1.0	0.0	0.0	0.0	0.0	0.0	0.0	0.0	0.0	1.0	1.0	5	el Gòtic	False	True	True
NH Barcelona Stadium	0	111	0	0	0	41.381199	2.127	1713	81	82	77	78	78	73	78	78	80	77	0	0	1	1	0	1	0	0	1	1.0	0.0	1.0	0.0	0.0	1.0	1.0	0.0	1.0	1.0	0.0	1.0	0.0	383.0	0.0	406.0	57.0	452.0	0.0	0.0	0.0	0.0	317.0	0.0	79.0	0.0	82.0	82.0	82.0	0.0	0.0	0.0	0.0	91.0	0.0	1.0	1.0	1.0	0.0	1.0	1.0	1.0	0.0	1.0	1.0	0.0	0.0	0.0	0.0	0.0	0.0	0.0	0.0	1.0	1.0	5	la Maternitat i Sant Ramon	False	False	False
Gaudi's Nest Apartments	0	175	0	0	1	41.404709	2.176145	398	0	92	88	87	0	0	95	87	94	89	1	0	0	0	0	0	0	0	0	0.0	0.0	1.0	0.0	0.0	0.0	0.0	0.0	0.0	0.0	0.0	0.0	0.0	0.0	0.0	0.0	0.0	0.0	0.0	0.0	0.0	0.0	0.0	0.0	0.0	0.0	0.0	0.0	0.0	0.0	0.0	0.0	0.0	0.0	0.0	1.0	1.0	0.0	0.0	1.0	0.0	1.0	0.0	1.0	1.0	0.0	0.0	0.0	0.0	0.0	0.0	0.0	0.0	0.0	0.0	3	la Sagrada Família	False	True	True
Continental Barcelona	0	148	0	0	0	41.385216	2.17045	1643	70	76	73	72	70	71	94	69	84	76	0	0	1	0	0	1	0	0	0	0.0	0.0	0.0	1.0	0.0	0.0	0.0	0.0	0.0	0.0	0.0	1.0	0.0	383.0	0.0	406.0	57.0	452.0	0.0	0.0	0.0	0.0	317.0	0.0	81.0	0.0	72.0	82.0	74.0	0.0	0.0	0.0	0.0	75.0	0.0	1.0	1.0	0.0	1.0	0.0	0.0	0.0	0.0	1.0	1.0	0.0	0.0	0.0	0.0	0.0	0.0	0.0	0.0	1.0	1.0	5	el Gòtic	True	False	True
Fonda Europa	0	76	0	0	0	41.608315	2.289564	247	74	91	86	84	77	82	90	82	86	86	1	0	0	0	0	1	0	0	0	0.0	0.0	0.0	0.0	0.0	0.0	0.0	0.0	0.0	1.0	0.0	0.0	0.0	0.0	0.0	406.0	57.0	452.0	0.0	0.0	0.0	0.0	0.0	0.0	0.0	0.0	94.0	90.0	88.0	0.0	0.0	0.0	0.0	0.0	0.0	1.0	1.0	0.0	0.0	1.0	0.0	1.0	0.0	1.0	1.0	0.0	0.0	0.0	0.0	0.0	0.0	0.0	0.0	1.0	1.0	5	outskirt	False	False	False
08028 Apartments	0	98	0	0	1	41.384113	2.131648	2502	0	90	85	83	71	87	88	84	89	83	0	0	0	0	0	1	0	0	0	0.0	0.0	0.0	0.0	0.0	0.0	0.0	0.0	0.0	0.0	0.0	0.0	0.0	383.0	0.0	406.0	57.0	452.0	0.0	0.0	0.0	0.0	0.0	0.0	84.0	0.0	88.0	83.0	88.0	0.0	0.0	0.0	0.0	0.0	0.0	1.0	1.0	0.0	0.0	1.0	1.0	1.0	0.0	1.0	1.0	0.0	0.0	0.0	0.0	0.0	0.0	0.0	0.0	1.0	1.0	1	Carrer de Can Bruixa	False	False	False
Jazz	0	145	0	0	0	41.386002	2.165664	4220	78	92	90	87	82	88	94	89	88	86	1	0	0	0	0	0	0	0	0	0.0	0.0	0.0	0.0	0.0	0.0	0.0	0.0	0.0	1.0	0.0	0.0	0.0	0.0	0.0	406.0	57.0	452.0	0.0	71.0	0.0	0.0	317.0	0.0	0.0	0.0	92.0	92.0	92.0	0.0	95.0	0.0	0.0	89.0	0.0	1.0	1.0	0.0	0.0	1.0	1.0	0.0	0.0	1.0	1.0	0.0	0.0	0.0	0.0	0.0	0.0	0.0	0.0	1.0	1.0	5	la Dreta de l'Eixample	True	False	True
Subur Maritim	0	69	0	0	0	41.229935	1.794441	1407	75	83	79	77	76	77	85	75	81	77	1	0	0	1	0	0	0	0	1	0.0	0.0	1.0	0.0	0.0	1.0	0.0	0.0	0.0	1.0	0.0	0.0	0.0	383.0	0.0	406.0	57.0	452.0	0.0	0.0	0.0	0.0	317.0	0.0	69.0	0.0	82.0	75.0	84.0	0.0	0.0	0.0	0.0	85.0	0.0	1.0	1.0	0.0	1.0	1.0	1.0	1.0	0.0	1.0	1.0	0.0	0.0	0.0	0.0	0.0	0.0	0.0	0.0	1.0	1.0	5	outskirt	False	False	False
Hotel Catalonia Albéniz	0	95	0	0	0	41.408298	2.1862	1313	74	83	78	79	76	77	80	75	84	79	1	1	0	0	0	1	0	0	0	0.0	0.0	0.0	0.0	0.0	0.0	0.0	0.0	0.0	0.0	0.0	0.0	0.0	383.0	0.0	406.0	57.0	452.0	0.0	0.0	0.0	0.0	317.0	0.0	69.0	0.0	78.0	83.0	78.0	0.0	0.0	0.0	0.0	70.0	0.0	1.0	1.0	1.0	0.0	1.0	1.0	1.0	0.0	1.0	1.0	0.0	0.0	0.0	0.0	0.0	0.0	0.0	0.0	1.0	1.0	5	la Vila Olímpica	False	True	False
chic&basic Born	0	96	0	0	0	41.386761	2.182401	1009	0	86	83	83	78	83	91	81	90	82	1	0	0	1	0	0	0	0	0	0.0	0.0	0.0	0.0	0.0	1.0	0.0	0.0	0.0	0.0	0.0	1.0	0.0	0.0	0.0	406.0	0.0	452.0	0.0	0.0	0.0	0.0	0.0	0.0	0.0	0.0	86.0	0.0	86.0	0.0	0.0	0.0	0.0	0.0	0.0	1.0	1.0	1.0	0.0	0.0	0.0	0.0	0.0	1.0	1.0	0.0	0.0	0.0	0.0	0.0	0.0	0.0	0.0	1.0	1.0	5	Santa Caterina i la Ribera	False	True	True
Aparthotel Atenea Barcelona	0	100	1	0	0	41.386169	2.12882	2191	78	83	78	78	78	80	84	79	83	79	1	0	0	0	0	1	0	0	1	0.0	0.0	0.0	0.0	0.0	0.0	0.0	0.0	0.0	1.0	0.0	0.0	0.0	383.0	0.0	406.0	57.0	452.0	0.0	0.0	0.0	0.0	317.0	0.0	77.0	0.0	82.0	77.0	82.0	0.0	0.0	0.0	0.0	84.0	0.0	1.0	1.0	0.0	0.0	1.0	0.0	1.0	0.0	1.0	1.0	0.0	0.0	0.0	0.0	0.0	0.0	0.0	0.0	1.0	1.0	1	Carrer de Joan Güell	False	False	False
Comarquinal Bioresort	0	110	0	0	0	41.471722	1.688011	76	0	89	87	86	0	0	86	0	89	84	0	0	0	0	0	0	0	0	0	0.0	0.0	0.0	0.0	0.0	0.0	0.0	0.0	0.0	0.0	0.0	0.0	0.0	0.0	0.0	0.0	0.0	0.0	0.0	0.0	0.0	0.0	0.0	0.0	0.0	0.0	0.0	0.0	0.0	0.0	0.0	0.0	0.0	0.0	0.0	0.0	1.0	0.0	1.0	1.0	1.0	0.0	0.0	1.0	1.0	0.0	0.0	0.0	0.0	0.0	0.0	0.0	0.0	1.0	1.0	2	outskirt	False	False	False
Atenea Calabria Apartaments	0	94	0	0	0	41.380833	2.153471	2628	78	81	79	79	75	78	84	79	83	80	1	0	0	1	1	0	0	0	0	0.0	0.0	0.0	0.0	0.0	0.0	0.0	1.0	0.0	1.0	0.0	0.0	0.0	383.0	0.0	406.0	57.0	452.0	654.0	0.0	0.0	0.0	0.0	0.0	74.0	0.0	78.0	80.0	80.0	82.0	0.0	0.0	0.0	0.0	0.0	1.0	0.0	0.0	0.0	1.0	0.0	0.0	0.0	1.0	1.0	0.0	0.0	0.0	0.0	0.0	0.0	0.0	0.0	1.0	1.0	1	la Nova Esquerra de l'Eixample	False	True	True
Les Palmeres	0	46	0	0	0	41.6119	2.6543	645	79	89	80	79	79	82	81	83	86	82	1	0	0	1	0	0	0	0	0	1.0	0.0	0.0	0.0	0.0	0.0	0.0	0.0	0.0	0.0	0.0	0.0	0.0	383.0	0.0	406.0	57.0	452.0	0.0	0.0	0.0	0.0	317.0	0.0	80.0	0.0	82.0	85.0	80.0	0.0	0.0	0.0	0.0	84.0	0.0	1.0	1.0	1.0	1.0	1.0	1.0	1.0	1.0	1.0	1.0	0.0	0.0	0.0	0.0	0.0	0.0	0.0	0.0	1.0	1.0	5	outskirt	False	False	False
Novotel Barcelona Cornella	0	97	0	0	0	41.351143	2.089945	2241	76	85	80	81	74	82	73	78	82	78	0	0	0	0	1	0	0	0	0	0.0	0.0	1.0	0.0	0.0	0.0	0.0	1.0	0.0	1.0	0.0	0.0	1.0	383.0	0.0	406.0	57.0	452.0	0.0	0.0	0.0	0.0	317.0	0.0	80.0	0.0	82.0	75.0	82.0	0.0	0.0	0.0	0.0	70.0	0.0	1.0	1.0	0.0	1.0	1.0	1.0	1.0	0.0	1.0	1.0	0.0	0.0	0.0	0.0	0.0	0.0	0.0	0.0	1.0	0.0	5	outskirt	False	False	False
Look Barcelona Bruc	0	135	0	0	0	41.394985	2.169048	511	0	89	85	82	0	0	87	0	87	82	0	0	0	0	0	1	0	0	0	0.0	0.0	0.0	0.0	0.0	0.0	0.0	0.0	0.0	0.0	0.0	0.0	0.0	0.0	0.0	0.0	0.0	0.0	0.0	0.0	0.0	0.0	0.0	0.0	0.0	0.0	0.0	0.0	0.0	0.0	0.0	0.0	0.0	0.0	0.0	1.0	0.0	0.0	0.0	0.0	0.0	1.0	0.0	1.0	1.0	0.0	0.0	0.0	0.0	0.0	0.0	0.0	0.0	1.0	1.0	2	la Dreta de l'Eixample	True	False	True
H10 Marina Barcelona	0	119	1	0	0	41.392979	2.192564	4045	83	87	80	81	85	83	77	82	84	80	1	0	0	0	0	1	0	0	1	0.0	0.0	0.0	0.0	0.0	0.0	0.0	1.0	1.0	1.0	0.0	0.0	0.0	383.0	0.0	406.0	57.0	452.0	0.0	0.0	0.0	0.0	317.0	0.0	80.0	0.0	82.0	85.0	82.0	0.0	0.0	0.0	0.0	85.0	0.0	1.0	1.0	1.0	0.0	1.0	1.0	1.0	1.0	1.0	1.0	0.0	0.0	0.0	0.0	0.0	0.0	0.0	0.0	1.0	1.0	5	la Vila Olímpica del Poblenou	False	True	False
Don Cándido	0	60	0	0	0	41.552471	2.007987	649	77	82	79	77	72	78	75	77	80	78	1	0	0	0	0	1	0	0	0	0.0	0.0	0.0	0.0	0.0	0.0	0.0	0.0	0.0	1.0	0.0	0.0	0.0	383.0	0.0	406.0	57.0	452.0	0.0	0.0	0.0	0.0	0.0	0.0	85.0	0.0	76.0	75.0	80.0	0.0	0.0	0.0	0.0	0.0	0.0	1.0	1.0	1.0	0.0	1.0	0.0	1.0	1.0	1.0	1.0	0.0	0.0	0.0	0.0	0.0	0.0	0.0	0.0	0.0	0.0	5	outskirt	False	False	False
Citadines Ramblas Barcelona	0	152	0	0	0	41.383904	2.171469	2546	73	81	82	79	75	81	95	81	83	80	1	0	0	0	0	1	0	0	0	0.0	0.0	1.0	0.0	0.0	0.0	0.0	1.0	0.0	1.0	0.0	0.0	0.0	383.0	0.0	406.0	57.0	452.0	0.0	0.0	0.0	0.0	317.0	0.0	67.0	0.0	84.0	88.0	86.0	0.0	0.0	0.0	0.0	86.0	0.0	1.0	0.0	0.0	1.0	1.0	0.0	0.0	0.0	1.0	1.0	0.0	0.0	0.0	0.0	0.0	0.0	0.0	0.0	1.0	1.0	1	el Gòtic	True	False	True
Milton House Gran Via	0	119	0	0	0	41.391678	2.170861	126	0	91	86	82	0	0	90	0	84	82	0	1	0	0	0	1	0	0	0	0.0	0.0	0.0	0.0	0.0	0.0	0.0	0.0	0.0	0.0	0.0	0.0	0.0	0.0	0.0	0.0	0.0	0.0	0.0	0.0	0.0	0.0	0.0	0.0	0.0	0.0	0.0	0.0	0.0	0.0	0.0	0.0	0.0	0.0	0.0	1.0	0.0	0.0	0.0	0.0	0.0	0.0	0.0	0.0	1.0	0.0	0.0	0.0	0.0	0.0	0.0	0.0	0.0	0.0	0.0	3	la Dreta de l'Eixample	True	False	True
Hotel Well and Come	0	150	0	0	0	41.399178	2.165613	427	0	93	89	86	0	87	89	0	93	83	0	0	1	0	0	0	0	0	0	0.0	0.0	1.0	0.0	0.0	0.0	0.0	0.0	0.0	0.0	0.0	0.0	0.0	0.0	0.0	406.0	0.0	452.0	0.0	0.0	0.0	0.0	0.0	0.0	0.0	0.0	92.0	0.0	88.0	0.0	0.0	0.0	0.0	0.0	0.0	1.0	1.0	1.0	0.0	1.0	1.0	0.0	0.0	1.0	1.0	0.0	0.0	0.0	0.0	0.0	0.0	0.0	0.0	1.0	1.0	5	la Dreta de l'Eixample	True	False	True
El Cid	0	34	0	0	0	41.25275	1.902158	1620	78	85	79	79	76	77	90	73	87	87	1	0	0	0	0	1	0	0	0	1.0	0.0	0.0	0.0	0.0	0.0	0.0	1.0	0.0	0.0	0.0	0.0	0.0	383.0	0.0	406.0	0.0	452.0	654.0	0.0	0.0	0.0	317.0	0.0	74.0	0.0	80.0	0.0	80.0	82.0	0.0	0.0	0.0	68.0	0.0	1.0	1.0	0.0	0.0	1.0	1.0	1.0	0.0	1.0	1.0	0.0	0.0	0.0	0.0	0.0	0.0	0.0	0.0	1.0	1.0	5	outskirt	False	False	False
Résidence Pierre & Vacances Barcelona Sants	0	136	0	0	0	41.375496	2.124507	682	0	85	76	81	76	80	82	83	85	80	0	0	0	0	1	0	0	0	1	0.0	0.0	0.0	0.0	0.0	0.0	0.0	0.0	0.0	0.0	0.0	0.0	0.0	0.0	0.0	406.0	57.0	452.0	0.0	0.0	0.0	0.0	0.0	0.0	0.0	0.0	82.0	65.0	80.0	0.0	0.0	0.0	0.0	0.0	0.0	1.0	0.0	0.0	1.0	0.0	0.0	0.0	0.0	1.0	0.0	0.0	0.0	0.0	0.0	0.0	0.0	0.0	0.0	0.0	0.0	3	Sants-Badal	False	False	False
Madison Bahia	0	35	0	0	0	41.236301	1.807463	597	0	79	71	69	72	71	91	75	84	80	1	0	0	1	0	0	0	0	0	0.0	0.0	0.0	0.0	0.0	1.0	0.0	0.0	0.0	0.0	0.0	0.0	0.0	0.0	0.0	0.0	57.0	0.0	0.0	0.0	0.0	0.0	317.0	0.0	0.0	0.0	0.0	77.0	0.0	0.0	0.0	0.0	0.0	87.0	0.0	1.0	1.0	0.0	0.0	0.0	0.0	1.0	0.0	1.0	1.0	0.0	0.0	0.0	0.0	0.0	0.0	0.0	0.0	1.0	0.0	5	outskirt	False	False	False
Market	0	85	0	0	0	41.379131	2.160482	1971	78	83	77	77	80	80	83	79	84	80	1	0	0	1	0	0	0	0	0	0.0	0.0	0.0	0.0	0.0	0.0	0.0	1.0	0.0	1.0	0.0	0.0	0.0	0.0	0.0	406.0	57.0	452.0	0.0	0.0	0.0	0.0	317.0	0.0	0.0	0.0	82.0	83.0	82.0	0.0	0.0	0.0	0.0	79.0	0.0	1.0	1.0	0.0	0.0	1.0	0.0	1.0	0.0	1.0	1.0	0.0	0.0	0.0	0.0	0.0	0.0	0.0	0.0	1.0	1.0	5	Sant Antoni	False	True	True
W Barcelona	0	331	1	0	0	41.368481	2.190059	1927	0	89	91	87	84	87	88	91	87	77	1	0	0	0	0	0	0	0	0	0.0	0.0	0.0	1.0	0.0	1.0	1.0	1.0	1.0	1.0	0.0	1.0	0.0	0.0	0.0	406.0	57.0	452.0	0.0	71.0	0.0	0.0	317.0	0.0	0.0	0.0	88.0	90.0	90.0	0.0	85.0	0.0	0.0	88.0	0.0	1.0	1.0	1.0	1.0	1.0	1.0	1.0	1.0	1.0	1.0	0.0	0.0	0.0	0.0	0.0	0.0	0.0	0.0	0.0	1.0	5	la Barceloneta	False	False	False
Vasanta	0	150	0	0	0	41.390644	2.172391	631	0	95	91	88	78	89	94	87	88	88	0	0	1	0	0	0	0	0	0	0.0	0.0	0.0	0.0	0.0	1.0	0.0	0.0	0.0	1.0	0.0	0.0	0.0	383.0	0.0	406.0	57.0	452.0	0.0	0.0	0.0	0.0	0.0	0.0	80.0	0.0	92.0	95.0	90.0	0.0	0.0	0.0	0.0	0.0	0.0	1.0	0.0	0.0	0.0	1.0	0.0	0.0	0.0	1.0	1.0	0.0	0.0	0.0	0.0	0.0	0.0	0.0	0.0	0.0	0.0	5	la Dreta de l'Eixample	True	False	True
Yurbban Trafalgar	0	175	0	0	1	41.389061	2.176039	1869	78	91	84	83	81	89	91	80	90	83	1	0	0	1	0	0	0	0	1	0.0	0.0	0.0	1.0	0.0	1.0	0.0	0.0	0.0	1.0	0.0	1.0	0.0	0.0	0.0	406.0	57.0	452.0	0.0	0.0	0.0	0.0	0.0	0.0	0.0	0.0	92.0	90.0	94.0	0.0	0.0	0.0	0.0	0.0	0.0	1.0	1.0	1.0	0.0	1.0	1.0	1.0	0.0	1.0	1.0	0.0	0.0	0.0	0.0	0.0	0.0	0.0	0.0	1.0	1.0	5	Santa Caterina i la Ribera	True	False	True
Hotel Sant Angelo	0	94	0	0	0	41.3792	2.1502	1002	73	83	73	72	77	74	83	72	83	76	1	0	0	0	1	0	0	0	0	0.0	0.0	0.0	0.0	0.0	0.0	0.0	0.0	1.0	1.0	0.0	0.0	0.0	383.0	0.0	406.0	57.0	452.0	0.0	0.0	0.0	0.0	317.0	0.0	81.0	0.0	76.0	70.0	74.0	0.0	0.0	0.0	0.0	76.0	0.0	1.0	0.0	0.0	0.0	1.0	0.0	0.0	0.0	1.0	1.0	0.0	0.0	0.0	0.0	0.0	0.0	0.0	0.0	1.0	1.0	5	Carrer del Consell de Cent	False	True	False
Occidental Atenea Mar 	0	110	1	0	0	41.402557	2.212145	3443	73	87	83	81	75	83	81	81	82	78	1	0	0	0	0	0	0	0	0	1.0	0.0	0.0	0.0	0.0	0.0	0.0	1.0	1.0	1.0	1.0	0.0	0.0	383.0	0.0	406.0	57.0	452.0	654.0	0.0	0.0	0.0	0.0	0.0	79.0	0.0	84.0	80.0	82.0	82.0	0.0	0.0	0.0	0.0	0.0	1.0	1.0	1.0	0.0	1.0	0.0	1.0	1.0	1.0	1.0	0.0	0.0	0.0	0.0	0.0	0.0	0.0	0.0	1.0	1.0	5	Diagonal Mar i el Front Marítim del Poblenou	False	False	False
Bcn-Accommodation	0	105	0	0	0	41.384689	2.169052	913	0	78	74	74	0	0	91	80	81	79	1	0	0	0	1	0	1	0	1	0.0	0.0	0.0	0.0	0.0	0.0	0.0	0.0	0.0	0.0	0.0	0.0	1.0	0.0	0.0	0.0	57.0	0.0	0.0	0.0	0.0	0.0	0.0	0.0	0.0	0.0	0.0	78.0	0.0	0.0	0.0	0.0	0.0	0.0	0.0	1.0	0.0	0.0	1.0	0.0	0.0	0.0	0.0	1.0	1.0	0.0	0.0	0.0	0.0	0.0	0.0	0.0	0.0	0.0	0.0	1	el Raval	True	False	True
Catalonia Park Güell	0	80	0	0	0	41.416	2.147	827	79	78	72	75	73	74	70	67	78	72	1	0	0	1	0	0	0	0	0	0.0	0.0	0.0	0.0	0.0	0.0	0.0	0.0	0.0	1.0	0.0	0.0	0.0	383.0	0.0	406.0	57.0	452.0	0.0	0.0	0.0	0.0	317.0	0.0	65.0	0.0	72.0	75.0	72.0	0.0	0.0	0.0	0.0	66.0	0.0	1.0	1.0	0.0	0.0	1.0	0.0	0.0	0.0	1.0	1.0	0.0	0.0	0.0	0.0	0.0	0.0	0.0	0.0	1.0	1.0	5	Vallcarca	False	False	False
Happy People Sagrada Familia	0	151	0	0	0	41.412685	2.180586	350	0	85	82	81	0	84	80	0	83	79	1	0	0	0	0	0	0	0	0	0.0	0.0	0.0	0.0	0.0	0.0	0.0	0.0	0.0	0.0	0.0	0.0	0.0	0.0	0.0	406.0	0.0	452.0	0.0	0.0	0.0	0.0	0.0	0.0	0.0	0.0	88.0	0.0	82.0	0.0	0.0	0.0	0.0	0.0	0.0	1.0	0.0	0.0	1.0	1.0	0.0	0.0	0.0	1.0	1.0	0.0	0.0	0.0	0.0	0.0	0.0	0.0	0.0	0.0	1.0	3	el Camp de l'Arpa del Clot	False	True	False
NH Porta Barcelona	0	65	0	0	0	41.377262	2.077628	1948	76	86	80	78	79	82	67	80	83	81	0	0	1	1	0	1	0	0	0	0.0	0.0	0.0	0.0	0.0	1.0	0.0	1.0	0.0	1.0	0.0	1.0	0.0	383.0	0.0	406.0	57.0	452.0	0.0	0.0	0.0	0.0	317.0	0.0	70.0	0.0	80.0	78.0	80.0	0.0	0.0	0.0	0.0	80.0	0.0	1.0	1.0	1.0	1.0	1.0	0.0	1.0	0.0	1.0	1.0	0.0	0.0	0.0	0.0	0.0	0.0	0.0	0.0	1.0	1.0	5	outskirt	False	False	False
Attica 21 Barcelona Mar	0	107	0	0	0	41.405231	2.211729	1905	73	86	82	78	78	83	77	78	83	78	1	0	0	1	0	0	0	0	0	0.0	0.0	1.0	0.0	0.0	0.0	0.0	0.0	0.0	1.0	0.0	0.0	0.0	383.0	0.0	406.0	57.0	452.0	0.0	0.0	0.0	0.0	317.0	0.0	72.0	0.0	82.0	87.0	82.0	0.0	0.0	0.0	0.0	73.0	0.0	1.0	1.0	0.0	0.0	1.0	1.0	0.0	0.0	1.0	1.0	0.0	0.0	0.0	0.0	0.0	0.0	0.0	0.0	1.0	1.0	5	Diagonal Mar i el Front Marítim del Poblenou	False	False	False
BCN Urban Hotels Del Comte	0	112	0	0	0	41.382702	2.1573	3477	70	87	77	78	78	81	85	75	81	79	1	0	0	0	0	1	0	0	0	0.0	0.0	0.0	0.0	1.0	1.0	0.0	0.0	1.0	1.0	0.0	1.0	0.0	383.0	0.0	406.0	57.0	452.0	0.0	0.0	0.0	0.0	317.0	0.0	79.0	0.0	82.0	92.0	82.0	0.0	0.0	0.0	0.0	81.0	0.0	1.0	0.0	0.0	0.0	1.0	0.0	0.0	0.0	1.0	1.0	0.0	0.0	0.0	0.0	0.0	0.0	0.0	0.0	1.0	1.0	5	l'Antiga Esquerra de l'Eixample	False	True	True
Medinaceli	0	135	0	0	0	41.378201	2.1786	1386	68	82	74	74	73	81	89	75	77	74	0	0	0	1	0	0	0	0	0	0.0	0.0	0.0	0.0	0.0	0.0	0.0	0.0	0.0	0.0	0.0	1.0	0.0	383.0	0.0	406.0	57.0	452.0	0.0	0.0	0.0	0.0	317.0	0.0	79.0	0.0	76.0	78.0	76.0	0.0	0.0	0.0	0.0	78.0	0.0	1.0	0.0	0.0	1.0	1.0	0.0	0.0	0.0	1.0	1.0	0.0	0.0	0.0	0.0	0.0	0.0	0.0	0.0	1.0	1.0	5	el Gòtic	False	True	True
Fernando	0	78	0	0	0	41.381447	2.175456	433	72	80	72	77	70	72	93	71	80	81	1	0	0	0	1	1	0	1	1	0.0	0.0	1.0	0.0	0.0	1.0	0.0	0.0	1.0	1.0	0.0	1.0	0.0	0.0	0.0	406.0	0.0	452.0	0.0	0.0	0.0	0.0	317.0	0.0	0.0	0.0	70.0	0.0	72.0	0.0	0.0	0.0	0.0	80.0	0.0	1.0	1.0	0.0	0.0	0.0	0.0	1.0	0.0	1.0	1.0	0.0	0.0	0.0	0.0	0.0	0.0	0.0	0.0	1.0	1.0	4	el Gòtic	False	True	True
Medium Prisma	0	77	0	0	0	41.389099	2.1428	1613	79	84	70	74	76	78	76	76	81	75	1	0	0	1	0	1	0	0	0	0.0	0.0	0.0	0.0	0.0	0.0	0.0	0.0	0.0	1.0	0.0	0.0	0.0	383.0	0.0	406.0	57.0	452.0	0.0	0.0	0.0	0.0	0.0	0.0	72.0	0.0	74.0	85.0	74.0	0.0	0.0	0.0	0.0	0.0	0.0	1.0	0.0	0.0	0.0	0.0	0.0	0.0	0.0	1.0	1.0	0.0	0.0	0.0	0.0	0.0	0.0	0.0	0.0	1.0	1.0	5	Galvany	False	True	False
Nuevo Triunfo	0	88	0	0	0	41.373199	2.1699	1425	0	81	69	69	65	76	82	72	82	74	1	0	0	0	0	0	0	0	0	0.0	0.0	0.0	0.0	0.0	0.0	0.0	0.0	0.0	0.0	0.0	0.0	0.0	0.0	0.0	406.0	57.0	452.0	0.0	0.0	0.0	0.0	317.0	0.0	0.0	0.0	74.0	77.0	74.0	0.0	0.0	0.0	0.0	71.0	0.0	1.0	0.0	1.0	0.0	1.0	0.0	0.0	0.0	1.0	1.0	0.0	0.0	0.0	0.0	0.0	0.0	0.0	0.0	1.0	1.0	5	el Poble-sec	False	True	False
Haromar	0	27	0	0	1	41.610802	2.6515	1487	67	75	67	69	70	70	84	67	73	76	1	0	0	1	0	0	0	0	0	1.0	0.0	0.0	1.0	0.0	0.0	0.0	1.0	0.0	0.0	0.0	0.0	0.0	383.0	0.0	406.0	57.0	452.0	0.0	0.0	0.0	0.0	317.0	0.0	53.0	0.0	68.0	47.0	68.0	0.0	0.0	0.0	0.0	67.0	0.0	0.0	1.0	0.0	1.0	1.0	1.0	1.0	0.0	1.0	1.0	0.0	0.0	0.0	0.0	0.0	0.0	0.0	0.0	1.0	1.0	5	outskirt	False	False	False
Acacia Premium Suite	0	113	0	0	0	41.388	2.1512	776	74	89	83	80	75	84	86	83	89	81	1	0	0	1	0	0	0	0	0	0.0	0.0	0.0	0.0	0.0	0.0	0.0	0.0	0.0	0.0	0.0	0.0	0.0	0.0	0.0	406.0	57.0	452.0	0.0	0.0	0.0	0.0	0.0	0.0	0.0	0.0	88.0	90.0	86.0	0.0	0.0	0.0	0.0	0.0	0.0	1.0	0.0	0.0	0.0	1.0	0.0	0.0	0.0	1.0	1.0	0.0	0.0	0.0	0.0	0.0	0.0	0.0	0.0	1.0	1.0	5	l'Antiga Esquerra de l'Eixample	False	True	True
Meliá Barcelona Sky	0	100	1	0	0	41.40641	2.2013	1910	76	81	82	79	77	78	71	79	83	75	1	0	0	0	0	0	0	0	1	1.0	0.0	0.0	0.0	0.0	1.0	1.0	1.0	1.0	1.0	0.0	0.0	0.0	383.0	0.0	406.0	57.0	452.0	0.0	71.0	0.0	0.0	0.0	0.0	81.0	0.0	80.0	78.0	78.0	0.0	84.0	0.0	0.0	0.0	0.0	1.0	1.0	1.0	0.0	1.0	1.0	1.0	1.0	1.0	1.0	0.0	0.0	0.0	0.0	0.0	0.0	0.0	0.0	1.0	1.0	5	Diagonal Mar	False	False	False
Catalonia Gran Verdi	0	59	0	0	0	41.555397	2.098035	546	73	78	75	78	66	75	82	69	80	76	1	0	0	1	0	0	0	0	0	0.0	0.0	1.0	0.0	0.0	0.0	0.0	0.0	0.0	1.0	0.0	0.0	0.0	383.0	0.0	406.0	57.0	452.0	0.0	0.0	0.0	0.0	317.0	0.0	71.0	0.0	70.0	82.0	70.0	0.0	0.0	0.0	0.0	80.0	0.0	1.0	1.0	0.0	0.0	1.0	0.0	1.0	0.0	1.0	1.0	0.0	0.0	0.0	0.0	0.0	0.0	0.0	0.0	1.0	1.0	5	outskirt	False	False	False
Barceló Raval	0	175	0	0	0	41.379009	2.169558	4446	76	86	84	82	77	85	80	84	86	80	0	1	0	0	0	0	0	0	0	0.0	0.0	0.0	0.0	0.0	1.0	0.0	0.0	1.0	1.0	0.0	0.0	0.0	0.0	0.0	406.0	57.0	452.0	0.0	71.0	0.0	0.0	317.0	0.0	0.0	0.0	86.0	83.0	84.0	0.0	90.0	0.0	0.0	86.0	0.0	1.0	1.0	1.0	0.0	1.0	1.0	1.0	0.0	1.0	1.0	0.0	0.0	0.0	0.0	0.0	0.0	0.0	0.0	1.0	1.0	5	el Raval	False	True	True
TRYP Barcelona Condal Mar	0	99	1	0	0	41.412601	2.2092	2902	80	86	83	81	78	82	63	83	82	79	1	0	0	0	0	1	0	0	0	0.0	0.0	0.0	0.0	0.0	0.0	0.0	0.0	0.0	1.0	0.0	0.0	0.0	383.0	0.0	406.0	57.0	452.0	0.0	0.0	0.0	0.0	317.0	0.0	77.0	0.0	82.0	85.0	84.0	0.0	0.0	0.0	0.0	86.0	0.0	1.0	1.0	1.0	1.0	1.0	1.0	1.0	0.0	0.0	1.0	0.0	0.0	0.0	0.0	0.0	0.0	0.0	0.0	0.0	0.0	5	Provençals del Poblenou	False	False	False
Hesperia Fira Suites	0	96	0	0	0	41.346916	2.107841	1574	77	86	85	81	79	78	72	83	85	83	0	1	0	0	1	0	0	0	1	0.0	0.0	0.0	0.0	0.0	0.0	0.0	0.0	0.0	1.0	0.0	0.0	0.0	383.0	0.0	406.0	57.0	452.0	0.0	0.0	0.0	0.0	0.0	0.0	80.0	0.0	86.0	77.0	86.0	0.0	0.0	0.0	0.0	0.0	0.0	1.0	0.0	0.0	0.0	1.0	0.0	1.0	0.0	1.0	1.0	0.0	0.0	0.0	0.0	0.0	0.0	0.0	0.0	1.0	1.0	1	outskirt	False	False	False
Holiday Inn Express Sant Cugat	0	72	0	0	0	41.489037	2.08251	1476	74	86	80	81	75	81	71	80	84	85	1	0	1	1	1	0	0	0	0	0.0	0.0	0.0	0.0	0.0	0.0	0.0	0.0	0.0	1.0	0.0	0.0	0.0	383.0	0.0	406.0	57.0	452.0	654.0	0.0	0.0	0.0	0.0	0.0	88.0	0.0	82.0	68.0	84.0	80.0	0.0	0.0	0.0	0.0	0.0	1.0	1.0	0.0	0.0	1.0	0.0	0.0	0.0	1.0	1.0	0.0	0.0	0.0	0.0	0.0	0.0	0.0	0.0	0.0	0.0	5	outskirt	False	False	False
Barcelona Golf Resort & Spa	0	40	0	0	0	41.493053	1.849716	2484	73	79	80	77	68	73	73	78	79	82	0	1	0	0	0	0	0	0	0	0.0	0.0	0.0	0.0	0.0	1.0	0.0	1.0	0.0	1.0	0.0	0.0	0.0	383.0	0.0	406.0	57.0	452.0	0.0	0.0	0.0	0.0	317.0	0.0	82.0	0.0	78.0	63.0	78.0	0.0	0.0	0.0	0.0	90.0	0.0	1.0	0.0	0.0	1.0	1.0	1.0	1.0	0.0	1.0	1.0	0.0	0.0	0.0	0.0	0.0	0.0	0.0	0.0	1.0	1.0	5	outskirt	False	False	False
Barcelona Century	0	105	0	0	0	41.386101	2.1548	347	73	85	77	76	77	0	80	74	84	79	1	0	0	0	0	1	0	0	1	0.0	0.0	1.0	0.0	0.0	0.0	0.0	0.0	0.0	1.0	0.0	0.0	0.0	383.0	0.0	0.0	57.0	452.0	654.0	0.0	0.0	0.0	317.0	0.0	71.0	0.0	0.0	77.0	80.0	82.0	0.0	0.0	0.0	76.0	0.0	1.0	0.0	0.0	1.0	1.0	0.0	0.0	0.0	1.0	1.0	0.0	0.0	0.0	0.0	0.0	0.0	0.0	0.0	1.0	1.0	5	l'Antiga Esquerra de l'Eixample	False	True	True
Four Points by Sheraton Barcelona Diagonal	0	102	1	0	0	41.405399	2.1962	2073	77	89	86	83	81	84	81	85	87	85	0	1	0	0	0	1	0	0	0	0.0	0.0	0.0	0.0	0.0	0.0	0.0	1.0	0.0	1.0	0.0	0.0	0.0	383.0	0.0	406.0	57.0	452.0	0.0	0.0	0.0	0.0	317.0	0.0	78.0	0.0	90.0	87.0	90.0	0.0	0.0	0.0	0.0	84.0	0.0	1.0	1.0	0.0	0.0	1.0	0.0	1.0	0.0	1.0	1.0	0.0	0.0	0.0	0.0	0.0	0.0	0.0	0.0	1.0	1.0	5	Diagonal Mar	False	False	False
Apartamentos Descartes	0	87	0	0	0	41.400352	2.143148	115	0	85	83	80	0	0	82	81	90	82	0	0	0	0	1	0	0	0	0	0.0	0.0	0.0	0.0	0.0	0.0	0.0	0.0	0.0	0.0	0.0	0.0	0.0	0.0	0.0	0.0	0.0	0.0	0.0	0.0	0.0	0.0	0.0	0.0	0.0	0.0	0.0	0.0	0.0	0.0	0.0	0.0	0.0	0.0	0.0	1.0	0.0	0.0	0.0	0.0	0.0	0.0	0.0	1.0	1.0	0.0	0.0	0.0	0.0	0.0	0.0	0.0	0.0	0.0	0.0	1	Sant Gervasi - Galvany	False	False	False
Senator Barcelona  Spa	0	98	1	0	0	41.37674	2.113766	3870	78	82	80	78	65	79	75	79	77	76	0	1	0	0	0	1	0	0	1	0.0	0.0	0.0	0.0	0.0	0.0	0.0	1.0	0.0	1.0	0.0	0.0	0.0	383.0	0.0	406.0	57.0	452.0	0.0	0.0	0.0	0.0	317.0	0.0	78.0	0.0	76.0	77.0	78.0	0.0	0.0	0.0	0.0	74.0	0.0	1.0	1.0	1.0	1.0	1.0	1.0	1.0	1.0	1.0	1.0	0.0	0.0	0.0	0.0	0.0	0.0	0.0	0.0	1.0	1.0	5	la Maternitat i Sant Ramon	False	False	False
Masd Mediterráneo	0	90	0	0	0	41.265831	1.992158	637	0	88	87	85	0	82	86	81	87	83	0	0	0	0	0	1	0	0	0	1.0	0.0	0.0	0.0	0.0	0.0	0.0	0.0	0.0	0.0	0.0	0.0	0.0	383.0	0.0	406.0	57.0	452.0	0.0	0.0	0.0	0.0	0.0	0.0	92.0	0.0	86.0	77.0	86.0	0.0	0.0	0.0	0.0	0.0	0.0	1.0	0.0	1.0	1.0	1.0	1.0	0.0	1.0	1.0	1.0	0.0	0.0	0.0	0.0	0.0	0.0	0.0	0.0	1.0	1.0	1	outskirt	False	False	False
Sagrada Familia	0	101	0	0	0	41.40588	2.171988	3039	73	82	76	77	79	80	84	75	81	79	1	0	0	0	0	1	0	0	1	0.0	0.0	0.0	0.0	0.0	0.0	0.0	0.0	0.0	1.0	0.0	1.0	0.0	383.0	0.0	406.0	57.0	452.0	0.0	0.0	0.0	0.0	317.0	0.0	76.0	0.0	80.0	77.0	80.0	0.0	0.0	0.0	0.0	81.0	0.0	1.0	0.0	1.0	1.0	1.0	1.0	0.0	1.0	1.0	1.0	0.0	0.0	0.0	0.0	0.0	0.0	0.0	0.0	1.0	1.0	5	el Baix Guinardó	False	True	False
ibis Barcelona Ripollet	0	51	0	0	0	41.495457	2.153181	519	0	86	85	80	75	82	75	83	85	83	1	0	0	0	0	0	0	0	0	0.0	0.0	0.0	0.0	0.0	0.0	0.0	0.0	0.0	1.0	0.0	0.0	1.0	0.0	0.0	406.0	57.0	452.0	0.0	0.0	0.0	0.0	317.0	0.0	0.0	0.0	86.0	77.0	84.0	0.0	0.0	0.0	0.0	80.0	0.0	1.0	1.0	1.0	1.0	1.0	0.0	1.0	0.0	1.0	1.0	0.0	0.0	0.0	0.0	0.0	0.0	0.0	0.0	1.0	0.0	5	outskirt	False	False	False
Sitges	0	50	0	0	0	41.232883	1.795468	1220	80	89	82	82	74	84	81	77	86	81	1	0	0	1	0	0	0	0	1	1.0	0.0	0.0	0.0	0.0	1.0	0.0	0.0	0.0	1.0	0.0	1.0	0.0	383.0	0.0	406.0	57.0	452.0	0.0	0.0	0.0	0.0	317.0	0.0	75.0	0.0	82.0	75.0	82.0	0.0	0.0	0.0	0.0	80.0	0.0	1.0	1.0	0.0	0.0	1.0	0.0	0.0	0.0	1.0	1.0	0.0	0.0	0.0	0.0	0.0	0.0	0.0	0.0	1.0	1.0	5	outskirt	False	False	False
Air Rooms	0	175	0	0	0	41.324596	2.09349	836	0	86	77	75	74	83	87	75	79	67	1	0	0	0	0	0	0	0	0	0.0	0.0	0.0	0.0	0.0	1.0	0.0	0.0	0.0	1.0	0.0	0.0	0.0	0.0	0.0	406.0	57.0	452.0	0.0	0.0	0.0	0.0	0.0	0.0	0.0	0.0	88.0	43.0	80.0	0.0	0.0	0.0	0.0	0.0	0.0	1.0	0.0	1.0	1.0	1.0	0.0	0.0	1.0	1.0	1.0	0.0	0.0	0.0	0.0	0.0	0.0	0.0	0.0	1.0	0.0	5	outskirt	False	False	False
Operaramblas	0	78	0	0	1	41.380154	2.172809	2629	0	84	75	74	60	0	93	74	79	81	0	0	0	1	0	1	0	0	0	0.0	0.0	1.0	0.0	0.0	0.0	0.0	0.0	0.0	0.0	0.0	0.0	0.0	0.0	0.0	0.0	57.0	0.0	0.0	0.0	0.0	0.0	317.0	0.0	0.0	0.0	0.0	90.0	0.0	0.0	0.0	0.0	0.0	81.0	0.0	1.0	0.0	0.0	0.0	1.0	0.0	0.0	0.0	1.0	1.0	0.0	0.0	0.0	0.0	0.0	0.0	0.0	0.0	1.0	1.0	4	Barri Gòtic	False	True	True
H10 Montcada	0	189	0	0	0	41.384399	2.1785	2909	76	90	79	83	80	84	94	78	89	82	1	0	0	0	0	0	0	0	0	0.0	0.0	0.0	0.0	0.0	0.0	0.0	0.0	1.0	1.0	0.0	0.0	0.0	0.0	0.0	406.0	57.0	452.0	654.0	0.0	0.0	0.0	317.0	0.0	0.0	0.0	86.0	90.0	88.0	80.0	0.0	0.0	0.0	86.0	0.0	1.0	1.0	0.0	0.0	1.0	0.0	0.0	0.0	1.0	1.0	0.0	0.0	0.0	0.0	0.0	0.0	0.0	0.0	1.0	1.0	5	Santa Caterina	False	True	False
Leonardo Boutique Hotel Barcelona Sagrada Familia	0	109	0	0	0	41.411015	2.185559	1108	77	90	84	83	78	85	82	83	90	84	1	0	0	0	0	1	0	0	1	0.0	0.0	0.0	0.0	0.0	1.0	0.0	0.0	0.0	1.0	0.0	0.0	0.0	383.0	0.0	406.0	57.0	452.0	0.0	0.0	0.0	0.0	317.0	0.0	76.0	0.0	86.0	82.0	86.0	0.0	0.0	0.0	0.0	84.0	0.0	1.0	0.0	0.0	0.0	0.0	0.0	0.0	0.0	1.0	1.0	0.0	0.0	0.0	0.0	0.0	0.0	0.0	0.0	1.0	1.0	5	el Camp de l'Arpa del Clot	False	True	False
Zenit Barcelona	0	87	1	0	0	41.395008	2.146929	1393	78	87	82	78	81	83	81	78	85	79	1	0	0	1	0	0	0	0	0	0.0	0.0	0.0	0.0	0.0	0.0	0.0	0.0	0.0	0.0	0.0	0.0	0.0	383.0	0.0	406.0	57.0	452.0	0.0	0.0	0.0	0.0	317.0	0.0	80.0	0.0	84.0	83.0	82.0	0.0	0.0	0.0	0.0	87.0	0.0	1.0	1.0	0.0	1.0	1.0	0.0	1.0	0.0	1.0	1.0	0.0	0.0	0.0	0.0	0.0	0.0	0.0	0.0	1.0	1.0	5	Sant Gervasi - Galvany	False	True	False
Princep de Viana	0	105	0	0	0	41.387917	2.169919	490	0	89	85	83	0	0	90	0	87	83	1	0	0	0	0	0	0	0	0	0.0	0.0	0.0	0.0	0.0	0.0	0.0	0.0	0.0	0.0	0.0	0.0	0.0	383.0	0.0	0.0	0.0	0.0	0.0	0.0	0.0	0.0	0.0	0.0	97.0	0.0	0.0	0.0	0.0	0.0	0.0	0.0	0.0	0.0	0.0	1.0	0.0	0.0	1.0	0.0	0.0	0.0	0.0	0.0	1.0	0.0	0.0	0.0	0.0	0.0	0.0	0.0	0.0	0.0	0.0	6	la Dreta de l'Eixample	True	False	True
Barcelona 226 Center Exclusive	0	500	0	0	1	41.395252	2.150684	579	0	88	83	85	0	72	87	79	87	85	0	0	0	0	0	0	1	1	0	0.0	0.0	0.0	0.0	0.0	1.0	0.0	1.0	0.0	0.0	0.0	0.0	0.0	0.0	0.0	406.0	0.0	452.0	0.0	0.0	0.0	0.0	0.0	0.0	0.0	0.0	90.0	0.0	90.0	0.0	0.0	0.0	0.0	0.0	0.0	1.0	0.0	0.0	0.0	0.0	0.0	0.0	0.0	1.0	1.0	0.0	0.0	0.0	0.0	0.0	0.0	0.0	0.0	1.0	1.0	5	Sant Gervasi - Galvany	False	True	False
BestPrice Diagonal	0	74	0	0	0	41.409573	2.209639	21	0	86	83	78	72	0	81	75	90	84	1	0	0	1	1	0	0	0	0	0.0	0.0	0.0	0.0	0.0	0.0	0.0	0.0	0.0	0.0	0.0	0.0	0.0	0.0	0.0	406.0	57.0	0.0	0.0	0.0	0.0	0.0	0.0	0.0	0.0	0.0	80.0	63.0	0.0	0.0	0.0	0.0	0.0	0.0	0.0	1.0	0.0	0.0	0.0	0.0	0.0	0.0	0.0	1.0	1.0	0.0	0.0	0.0	0.0	0.0	0.0	0.0	0.0	1.0	1.0	5	Diagonal Mar	False	False	False
Hotel Arrahona	0	62	0	0	0	41.531567	2.114182	1704	77	86	84	78	74	85	72	81	81	82	1	0	0	0	0	1	0	0	1	0.0	0.0	0.0	0.0	0.0	0.0	0.0	0.0	0.0	1.0	0.0	0.0	0.0	383.0	0.0	406.0	57.0	452.0	0.0	0.0	0.0	0.0	0.0	0.0	78.0	0.0	84.0	42.0	84.0	0.0	0.0	0.0	0.0	0.0	0.0	1.0	1.0	1.0	0.0	1.0	0.0	0.0	0.0	1.0	1.0	0.0	0.0	0.0	0.0	0.0	0.0	0.0	0.0	1.0	1.0	5	outskirt	False	False	False
Best Western Alfa Aeropuerto	0	85	0	0	0	41.328354	2.112966	3616	78	84	79	79	77	81	67	78	79	77	1	0	0	0	0	0	0	0	0	0.0	0.0	0.0	0.0	0.0	0.0	0.0	0.0	0.0	1.0	0.0	0.0	0.0	383.0	0.0	406.0	57.0	452.0	0.0	0.0	0.0	0.0	317.0	0.0	74.0	0.0	76.0	73.0	80.0	0.0	0.0	0.0	0.0	80.0	0.0	1.0	1.0	1.0	1.0	1.0	1.0	1.0	0.0	1.0	1.0	0.0	0.0	0.0	0.0	0.0	0.0	0.0	0.0	0.0	0.0	5	Zona Franca	False	False	False
H·TOP BCN City	0	61	0	0	0	41.410954	2.173175	652	0	77	65	66	69	73	81	68	79	73	1	0	0	1	0	1	0	0	1	0.0	0.0	0.0	0.0	0.0	0.0	0.0	0.0	0.0	0.0	0.0	0.0	0.0	383.0	0.0	406.0	0.0	452.0	654.0	0.0	0.0	0.0	317.0	0.0	66.0	0.0	72.0	0.0	66.0	80.0	0.0	0.0	0.0	59.0	0.0	1.0	1.0	0.0	0.0	0.0	0.0	1.0	0.0	1.0	1.0	0.0	0.0	0.0	0.0	0.0	0.0	0.0	0.0	1.0	1.0	5	el Baix Guinardó	False	True	False
Park Sedó Benstar Hotel Group	0	59	0	0	0	41.480164	2.036661	459	77	85	79	80	73	81	79	81	87	83	1	0	0	0	0	0	0	0	0	0.0	0.0	0.0	0.0	0.0	0.0	0.0	0.0	0.0	1.0	0.0	0.0	0.0	383.0	0.0	406.0	0.0	452.0	0.0	0.0	0.0	0.0	317.0	0.0	83.0	0.0	82.0	0.0	86.0	0.0	0.0	0.0	0.0	95.0	0.0	1.0	1.0	1.0	0.0	1.0	1.0	1.0	0.0	1.0	1.0	0.0	0.0	0.0	0.0	0.0	0.0	0.0	0.0	0.0	0.0	1	outskirt	False	False	False
Aparthotel Bertrán	0	77	0	0	0	41.410416	2.139824	933	82	85	79	81	74	77	79	80	87	81	1	0	0	0	0	0	0	0	0	0.0	0.0	0.0	0.0	0.0	0.0	0.0	0.0	0.0	0.0	0.0	0.0	0.0	383.0	0.0	406.0	0.0	452.0	654.0	0.0	0.0	0.0	317.0	0.0	77.0	0.0	78.0	0.0	80.0	72.0	0.0	0.0	0.0	76.0	0.0	1.0	0.0	1.0	1.0	1.0	1.0	0.0	0.0	1.0	1.0	0.0	0.0	0.0	0.0	0.0	0.0	0.0	0.0	1.0	1.0	1	el Putget i Farró	False	False	False
Bcn Montjuic	0	101	0	0	0	41.370201	2.1441	1205	62	84	81	79	69	83	79	76	83	79	1	0	0	0	0	0	0	0	0	0.0	0.0	0.0	1.0	0.0	0.0	0.0	1.0	0.0	1.0	0.0	0.0	0.0	383.0	0.0	406.0	57.0	452.0	0.0	0.0	0.0	0.0	317.0	0.0	73.0	0.0	86.0	82.0	82.0	0.0	0.0	0.0	0.0	81.0	0.0	1.0	1.0	1.0	0.0	1.0	0.0	0.0	1.0	1.0	1.0	0.0	0.0	0.0	0.0	0.0	0.0	0.0	0.0	1.0	1.0	1	la Font de la Guatlla	False	False	False
SERHS Carlit	0	80	0	0	0	41.397137	2.175804	1552	74	81	73	74	75	77	82	71	83	76	1	0	0	1	0	0	0	0	0	0.0	0.0	0.0	0.0	0.0	0.0	0.0	0.0	0.0	1.0	0.0	0.0	0.0	383.0	0.0	406.0	57.0	452.0	0.0	0.0	0.0	0.0	317.0	0.0	80.0	0.0	78.0	75.0	76.0	0.0	0.0	0.0	0.0	64.0	0.0	1.0	0.0	0.0	1.0	1.0	0.0	0.0	0.0	1.0	1.0	0.0	0.0	0.0	0.0	0.0	0.0	0.0	0.0	1.0	1.0	5	la Dreta de l'Eixample	True	False	True
AC Hotel Sant Cugat	0	121	0	0	0	41.4916	2.0742	555	76	87	86	82	74	84	75	78	83	77	0	1	0	0	0	1	0	0	1	0.0	0.0	0.0	0.0	0.0	0.0	0.0	1.0	0.0	1.0	0.0	0.0	0.0	383.0	0.0	406.0	57.0	452.0	0.0	0.0	0.0	0.0	317.0	0.0	78.0	0.0	86.0	73.0	88.0	0.0	0.0	0.0	0.0	73.0	0.0	1.0	1.0	1.0	0.0	1.0	1.0	1.0	0.0	1.0	1.0	0.0	0.0	0.0	0.0	0.0	0.0	0.0	0.0	0.0	0.0	5	outskirt	False	False	False
Abat Cisneros	0	49	0	0	0	41.590321	1.838256	891	77	88	79	80	80	78	92	77	82	80	0	0	0	1	0	0	0	0	0	0.0	0.0	0.0	0.0	0.0	0.0	0.0	0.0	0.0	0.0	0.0	0.0	0.0	383.0	0.0	406.0	57.0	452.0	654.0	0.0	0.0	0.0	0.0	0.0	68.0	0.0	80.0	78.0	80.0	78.0	0.0	0.0	0.0	0.0	0.0	0.0	0.0	0.0	0.0	0.0	0.0	1.0	0.0	1.0	1.0	0.0	0.0	0.0	0.0	0.0	0.0	0.0	0.0	0.0	0.0	5	outskirt	False	False	False
Sitges Apartment	0	71	0	0	0	41.243504	1.808031	294	0	84	88	80	0	83	75	79	72	81	1	0	0	0	0	0	0	0	0	0.0	0.0	1.0	0.0	0.0	0.0	0.0	0.0	0.0	0.0	0.0	0.0	0.0	0.0	0.0	406.0	0.0	452.0	0.0	0.0	0.0	0.0	0.0	0.0	0.0	0.0	78.0	0.0	78.0	0.0	0.0	0.0	0.0	0.0	0.0	1.0	0.0	0.0	0.0	1.0	1.0	0.0	0.0	1.0	1.0	0.0	0.0	0.0	0.0	0.0	0.0	0.0	0.0	1.0	1.0	3	outskirt	False	False	False
Hotel Bestprice Gracia	0	79	0	0	0	41.409698	2.160835	619	0	90	87	81	0	0	82	0	93	86	1	0	0	0	0	1	0	0	1	0.0	0.0	1.0	0.0	0.0	0.0	0.0	0.0	0.0	0.0	0.0	0.0	0.0	0.0	0.0	0.0	0.0	0.0	0.0	0.0	0.0	0.0	0.0	0.0	0.0	0.0	0.0	0.0	0.0	0.0	0.0	0.0	0.0	0.0	0.0	1.0	0.0	0.0	0.0	1.0	0.0	1.0	0.0	1.0	1.0	0.0	0.0	0.0	0.0	0.0	0.0	0.0	0.0	1.0	1.0	5	el Camp d'en Grassot i Gràcia Nova	False	True	False
Hcc Montblanc	0	107	0	0	0	41.387882	2.173283	1691	69	86	78	79	73	81	92	77	80	78	1	0	0	1	0	1	0	0	0	0.0	0.0	0.0	0.0	0.0	1.0	0.0	1.0	0.0	1.0	0.0	1.0	0.0	383.0	0.0	406.0	57.0	452.0	0.0	0.0	0.0	0.0	317.0	0.0	81.0	0.0	80.0	82.0	80.0	0.0	0.0	0.0	0.0	82.0	0.0	1.0	1.0	0.0	1.0	1.0	1.0	1.0	0.0	1.0	1.0	0.0	0.0	0.0	0.0	0.0	0.0	0.0	0.0	0.0	0.0	5	Sant Pere	True	False	False
Villa Emilia Barcelona	0	125	0	0	1	41.3801	2.1539	2536	77	95	89	85	77	93	86	88	91	86	0	0	1	0	0	1	0	0	1	0.0	0.0	0.0	0.0	0.0	0.0	0.0	0.0	0.0	1.0	0.0	0.0	0.0	0.0	0.0	406.0	57.0	452.0	654.0	71.0	0.0	0.0	0.0	0.0	0.0	0.0	92.0	92.0	92.0	88.0	96.0	0.0	0.0	0.0	0.0	1.0	1.0	0.0	1.0	1.0	0.0	1.0	0.0	1.0	1.0	0.0	0.0	0.0	0.0	0.0	0.0	0.0	0.0	1.0	1.0	5	la Nova Esquerra de l'Eixample	False	True	True
Negresco Princess	0	118	0	0	0	41.390419	2.172584	771	0	91	87	85	80	87	92	79	91	83	1	0	0	0	0	0	0	0	0	0.0	0.0	0.0	0.0	0.0	0.0	0.0	0.0	0.0	0.0	0.0	0.0	0.0	0.0	0.0	406.0	0.0	452.0	0.0	0.0	0.0	0.0	0.0	0.0	0.0	0.0	88.0	0.0	88.0	0.0	0.0	0.0	0.0	0.0	0.0	1.0	1.0	1.0	0.0	0.0	1.0	1.0	0.0	1.0	1.0	0.0	0.0	0.0	0.0	0.0	0.0	0.0	0.0	1.0	1.0	5	la Dreta de l'Eixample	True	False	True
Ayre Hotel Caspe	0	85	1	0	0	41.395912	2.179283	4375	75	88	84	82	80	85	81	81	88	82	1	0	0	0	0	0	0	0	0	0.0	0.0	0.0	0.0	0.0	0.0	0.0	0.0	0.0	1.0	0.0	0.0	0.0	383.0	0.0	406.0	57.0	452.0	0.0	71.0	0.0	0.0	0.0	0.0	81.0	0.0	84.0	83.0	86.0	0.0	84.0	0.0	0.0	0.0	0.0	1.0	1.0	1.0	0.0	1.0	0.0	1.0	0.0	1.0	1.0	0.0	0.0	0.0	0.0	0.0	0.0	0.0	0.0	1.0	1.0	5	el Fort Pienc	False	True	True
Hesperia Barri Gotic	0	119	0	0	0	41.380001	2.1792	2521	80	87	77	81	82	79	89	77	85	79	0	0	0	1	0	0	0	0	0	0.0	0.0	0.0	0.0	0.0	1.0	0.0	0.0	0.0	1.0	0.0	1.0	0.0	383.0	0.0	406.0	57.0	452.0	0.0	0.0	0.0	0.0	317.0	0.0	71.0	0.0	76.0	90.0	78.0	0.0	0.0	0.0	0.0	75.0	0.0	1.0	0.0	0.0	0.0	0.0	0.0	0.0	0.0	0.0	0.0	0.0	0.0	0.0	0.0	0.0	0.0	0.0	0.0	0.0	0.0	5	el Gòtic	False	True	True
Exe Ramblas Boquería	0	114	0	0	0	41.382355	2.171972	1624	72	86	80	76	71	80	94	78	85	77	1	0	0	1	0	1	0	0	0	0.0	0.0	0.0	0.0	0.0	0.0	0.0	0.0	0.0	0.0	0.0	0.0	0.0	383.0	0.0	406.0	57.0	452.0	0.0	0.0	0.0	0.0	317.0	0.0	84.0	0.0	84.0	65.0	82.0	0.0	0.0	0.0	0.0	74.0	0.0	1.0	0.0	0.0	0.0	0.0	0.0	0.0	0.0	1.0	1.0	0.0	0.0	0.0	0.0	0.0	0.0	0.0	0.0	1.0	1.0	5	Barri Gòtic	False	True	True
K+K Picasso	0	169	0	0	0	41.386772	2.184099	2136	81	93	89	85	78	89	93	87	94	84	0	0	1	0	0	1	0	0	0	0.0	0.0	0.0	0.0	0.0	0.0	0.0	0.0	0.0	1.0	0.0	0.0	0.0	0.0	0.0	406.0	0.0	452.0	0.0	0.0	0.0	0.0	317.0	0.0	0.0	0.0	94.0	0.0	92.0	0.0	0.0	0.0	0.0	76.0	0.0	1.0	1.0	1.0	1.0	1.0	1.0	0.0	0.0	1.0	1.0	0.0	0.0	0.0	0.0	0.0	0.0	0.0	0.0	1.0	1.0	5	Santa Caterina i la Ribera	False	True	True
Fairmont Rey Juan Carlos I 	0	152	1	0	0	41.383526	2.109614	1884	78	88	83	82	80	85	74	80	85	76	0	0	1	0	0	1	0	0	0	0.0	0.0	0.0	0.0	0.0	0.0	0.0	1.0	1.0	1.0	0.0	0.0	0.0	383.0	0.0	406.0	57.0	452.0	0.0	71.0	0.0	0.0	0.0	0.0	87.0	0.0	86.0	87.0	86.0	0.0	82.0	0.0	0.0	0.0	0.0	1.0	1.0	1.0	0.0	0.0	1.0	1.0	0.0	1.0	1.0	0.0	0.0	0.0	0.0	0.0	0.0	0.0	0.0	1.0	1.0	5	la Maternitat i Sant Ramon	False	False	False
Casa Con Estilo Bruc	0	100	0	0	0	41.390247	2.175143	727	0	91	80	82	79	82	90	82	87	83	1	0	0	1	0	1	0	0	0	0.0	0.0	0.0	0.0	0.0	0.0	0.0	0.0	0.0	0.0	0.0	0.0	0.0	0.0	0.0	406.0	57.0	452.0	0.0	0.0	0.0	0.0	0.0	0.0	0.0	0.0	86.0	93.0	86.0	0.0	0.0	0.0	0.0	0.0	0.0	1.0	0.0	0.0	0.0	0.0	0.0	0.0	0.0	1.0	1.0	0.0	0.0	0.0	0.0	0.0	0.0	0.0	0.0	1.0	0.0	2	la Dreta de l'Eixample	True	False	True
Royal Ramblas	0	145	0	0	0	41.384312	2.170636	2895	74	87	82	79	75	84	95	80	84	77	1	0	1	0	0	1	0	0	1	0.0	0.0	1.0	0.0	0.0	0.0	0.0	0.0	1.0	1.0	0.0	0.0	0.0	383.0	0.0	406.0	57.0	452.0	0.0	0.0	0.0	0.0	317.0	0.0	74.0	0.0	86.0	90.0	84.0	0.0	0.0	0.0	0.0	83.0	0.0	1.0	1.0	0.0	0.0	1.0	0.0	1.0	0.0	1.0	1.0	0.0	0.0	0.0	0.0	0.0	0.0	0.0	0.0	1.0	1.0	5	Barri Gòtic	True	False	True
NH Collection Barcelona Constanza	0	139	1	0	0	41.388885	2.136299	2225	80	89	86	85	78	85	81	84	84	80	0	1	0	0	0	1	0	0	0	0.0	0.0	0.0	0.0	0.0	0.0	1.0	1.0	0.0	1.0	0.0	0.0	0.0	383.0	0.0	406.0	57.0	452.0	0.0	0.0	0.0	0.0	0.0	0.0	80.0	0.0	86.0	87.0	88.0	0.0	0.0	0.0	0.0	0.0	0.0	1.0	1.0	1.0	0.0	1.0	1.0	1.0	1.0	1.0	1.0	0.0	0.0	0.0	0.0	0.0	0.0	0.0	0.0	1.0	1.0	5	Carrer de Deu i Mata	False	False	False
Best Western Premier Dante	0	86	0	0	0	41.3894	2.1564	686	77	89	82	83	81	83	84	83	87	81	1	0	0	1	0	1	0	0	0	0.0	0.0	0.0	0.0	0.0	0.0	0.0	0.0	1.0	1.0	0.0	0.0	0.0	383.0	0.0	406.0	57.0	452.0	0.0	0.0	0.0	0.0	317.0	0.0	80.0	0.0	86.0	85.0	86.0	0.0	0.0	0.0	0.0	88.0	0.0	1.0	1.0	1.0	0.0	1.0	0.0	1.0	0.0	0.0	1.0	0.0	0.0	0.0	0.0	0.0	0.0	0.0	0.0	0.0	0.0	5	l'Antiga Esquerra de l'Eixample	False	True	True
Apartment Lugaris Beach	0	157	0	0	0	41.399216	2.207691	1748	0	90	90	85	81	88	86	90	90	83	1	0	0	0	1	0	0	1	1	1.0	0.0	0.0	0.0	0.0	1.0	0.0	0.0	0.0	1.0	0.0	0.0	0.0	0.0	0.0	406.0	57.0	452.0	0.0	0.0	0.0	0.0	0.0	0.0	0.0	0.0	92.0	97.0	92.0	0.0	0.0	0.0	0.0	0.0	0.0	1.0	0.0	0.0	0.0	1.0	1.0	0.0	0.0	1.0	1.0	0.0	0.0	0.0	0.0	0.0	0.0	0.0	0.0	1.0	1.0	1	el Poblenou	False	False	False
Barcelona Center	0	168	0	0	0	41.391602	2.1593	1348	74	90	84	83	77	85	88	84	86	81	1	1	0	0	0	1	0	0	0	0.0	0.0	0.0	0.0	0.0	0.0	0.0	0.0	0.0	1.0	0.0	0.0	0.0	383.0	0.0	406.0	57.0	452.0	0.0	71.0	0.0	0.0	0.0	0.0	86.0	0.0	88.0	92.0	86.0	0.0	89.0	0.0	0.0	0.0	0.0	1.0	0.0	1.0	0.0	1.0	0.0	1.0	0.0	1.0	1.0	0.0	0.0	0.0	0.0	0.0	0.0	0.0	0.0	1.0	1.0	5	l'Antiga Esquerra de l'Eixample	False	True	True
Royal Passeig De Gracia	0	160	0	0	0	41.394676	2.162638	4130	77	89	86	82	78	84	94	84	87	80	0	0	0	0	0	0	0	0	1	0.0	0.0	0.0	0.0	0.0	0.0	0.0	1.0	1.0	1.0	0.0	0.0	0.0	0.0	0.0	406.0	57.0	452.0	0.0	0.0	0.0	0.0	0.0	0.0	0.0	0.0	88.0	78.0	86.0	0.0	0.0	0.0	0.0	0.0	0.0	1.0	1.0	0.0	0.0	1.0	0.0	0.0	0.0	1.0	1.0	0.0	0.0	0.0	0.0	0.0	0.0	0.0	0.0	1.0	1.0	5	la Dreta de l'Eixample	True	False	True
Ofelias	0	131	0	0	0	41.37677	2.150101	1052	75	92	87	85	78	87	88	83	89	82	1	0	0	0	0	0	0	0	0	0.0	0.0	0.0	0.0	0.0	0.0	0.0	0.0	0.0	1.0	0.0	0.0	0.0	0.0	0.0	406.0	57.0	452.0	654.0	71.0	0.0	0.0	0.0	0.0	0.0	0.0	90.0	90.0	90.0	72.0	90.0	0.0	0.0	0.0	0.0	1.0	1.0	0.0	0.0	0.0	1.0	0.0	0.0	1.0	0.0	0.0	0.0	0.0	0.0	0.0	0.0	0.0	0.0	1.0	0.0	5	la Nova Esquerra de l'Eixample	False	True	True
H10 Art Gallery	0	149	0	0	0	41.391994	2.157008	2245	0	91	85	86	85	85	89	85	88	82	1	0	0	0	0	1	0	0	0	0.0	0.0	0.0	0.0	0.0	0.0	0.0	0.0	0.0	1.0	0.0	0.0	0.0	0.0	0.0	406.0	57.0	452.0	0.0	0.0	0.0	0.0	0.0	0.0	0.0	0.0	90.0	90.0	90.0	0.0	0.0	0.0	0.0	0.0	0.0	1.0	1.0	1.0	0.0	1.0	1.0	1.0	0.0	1.0	1.0	0.0	0.0	0.0	0.0	0.0	0.0	0.0	0.0	1.0	1.0	5	l'Antiga Esquerra de l'Eixample	False	True	True
Hotel Granados 83	0	110	0	0	0	41.391846	2.156845	3315	78	91	85	84	76	87	89	84	89	82	1	0	0	1	0	0	0	0	0	0.0	0.0	1.0	0.0	0.0	0.0	0.0	0.0	0.0	1.0	0.0	1.0	0.0	383.0	0.0	406.0	57.0	452.0	0.0	71.0	0.0	0.0	0.0	0.0	90.0	0.0	90.0	90.0	88.0	0.0	90.0	0.0	0.0	0.0	0.0	1.0	1.0	1.0	0.0	1.0	1.0	1.0	0.0	1.0	1.0	0.0	0.0	0.0	0.0	0.0	0.0	0.0	0.0	1.0	1.0	5	l'Antiga Esquerra de l'Eixample	False	True	True
Wilson Boutique Hotel	0	110	0	0	0	41.394402	2.15	2387	80	89	84	83	77	84	85	85	89	86	0	0	1	0	0	1	0	0	0	0.0	0.0	1.0	0.0	0.0	0.0	0.0	0.0	1.0	1.0	0.0	1.0	0.0	383.0	0.0	406.0	57.0	452.0	0.0	0.0	0.0	0.0	317.0	0.0	88.0	0.0	88.0	87.0	88.0	0.0	0.0	0.0	0.0	78.0	0.0	1.0	1.0	0.0	0.0	1.0	0.0	0.0	0.0	1.0	1.0	0.0	0.0	0.0	0.0	0.0	0.0	0.0	0.0	1.0	1.0	5	Galvany	False	True	False
Hotel Midmost Barcelona	0	143	0	0	0	41.385769	2.165949	2629	77	87	81	84	77	82	92	81	86	80	0	0	1	0	0	1	0	0	0	0.0	0.0	0.0	0.0	0.0	0.0	0.0	1.0	0.0	1.0	0.0	0.0	0.0	0.0	0.0	406.0	57.0	452.0	654.0	0.0	0.0	0.0	317.0	0.0	0.0	0.0	82.0	65.0	80.0	84.0	0.0	0.0	0.0	86.0	0.0	1.0	1.0	0.0	0.0	0.0	1.0	1.0	0.0	1.0	1.0	0.0	0.0	0.0	0.0	0.0	0.0	0.0	0.0	1.0	1.0	5	la Dreta de l'Eixample	True	False	True
Grupotel Gran Via 678	0	112	0	0	0	41.392452	2.172801	510	78	88	80	81	81	83	88	81	89	79	1	0	0	1	0	1	0	0	0	0.0	0.0	0.0	0.0	0.0	0.0	0.0	0.0	0.0	0.0	0.0	0.0	0.0	383.0	0.0	406.0	57.0	452.0	0.0	0.0	0.0	0.0	317.0	0.0	79.0	0.0	84.0	88.0	84.0	0.0	0.0	0.0	0.0	92.0	0.0	1.0	1.0	0.0	0.0	1.0	1.0	1.0	0.0	1.0	1.0	0.0	0.0	0.0	0.0	0.0	0.0	0.0	0.0	1.0	1.0	5	la Dreta de l'Eixample	True	False	True
Regencia Colón	0	110	0	0	1	41.385399	2.1757	2160	76	88	77	82	77	83	94	81	88	84	1	0	0	0	0	0	0	0	1	0.0	0.0	0.0	0.0	0.0	0.0	0.0	0.0	0.0	0.0	0.0	0.0	0.0	383.0	0.0	406.0	57.0	452.0	0.0	0.0	0.0	0.0	317.0	0.0	81.0	0.0	84.0	88.0	82.0	0.0	0.0	0.0	0.0	84.0	0.0	1.0	0.0	0.0	0.0	1.0	0.0	1.0	0.0	0.0	0.0	0.0	0.0	0.0	0.0	0.0	0.0	0.0	0.0	0.0	0.0	5	el Gòtic	False	True	True
Sixtytwo Hotel	0	139	0	0	0	41.393017	2.164615	2504	80	92	90	86	86	89	96	86	91	85	1	0	0	0	0	0	0	0	0	0.0	0.0	0.0	0.0	0.0	0.0	0.0	0.0	0.0	1.0	0.0	0.0	0.0	383.0	0.0	406.0	57.0	452.0	0.0	71.0	0.0	0.0	0.0	0.0	85.0	0.0	92.0	87.0	92.0	0.0	87.0	0.0	0.0	0.0	0.0	1.0	1.0	0.0	0.0	0.0	0.0	0.0	0.0	1.0	1.0	0.0	0.0	0.0	0.0	0.0	0.0	0.0	0.0	1.0	1.0	5	la Dreta de l'Eixample	True	False	True
Eurostars Bcn Design	0	159	1	0	0	41.390759	2.166074	1672	75	85	79	79	75	78	95	77	85	75	1	1	0	0	0	0	0	0	0	0.0	0.0	0.0	0.0	0.0	0.0	0.0	0.0	0.0	0.0	0.0	0.0	0.0	383.0	0.0	406.0	57.0	452.0	0.0	0.0	0.0	0.0	317.0	0.0	79.0	0.0	80.0	85.0	78.0	0.0	0.0	0.0	0.0	73.0	0.0	1.0	1.0	1.0	0.0	1.0	0.0	0.0	0.0	1.0	1.0	0.0	0.0	0.0	0.0	0.0	0.0	0.0	0.0	1.0	1.0	5	la Dreta de l'Eixample	True	False	True
Suites Center Barcelona	0	149	0	0	0	41.397747	2.158246	292	0	88	84	84	72	84	90	82	88	82	0	1	0	0	1	1	0	1	0	0.0	0.0	0.0	0.0	0.0	0.0	0.0	0.0	0.0	0.0	0.0	0.0	0.0	0.0	0.0	406.0	57.0	452.0	0.0	0.0	0.0	0.0	0.0	0.0	0.0	0.0	88.0	67.0	86.0	0.0	0.0	0.0	0.0	0.0	0.0	1.0	0.0	0.0	0.0	1.0	0.0	0.0	0.0	1.0	1.0	0.0	0.0	0.0	0.0	0.0	0.0	0.0	0.0	1.0	0.0	1	la Vila de Gràcia	False	True	False
Arc La Rambla	0	130	0	0	1	41.378178	2.175589	4353	79	86	76	78	74	79	91	77	83	79	1	0	0	0	0	1	0	0	1	0.0	0.0	0.0	0.0	0.0	0.0	0.0	1.0	1.0	0.0	0.0	0.0	0.0	0.0	0.0	406.0	57.0	452.0	654.0	0.0	0.0	0.0	317.0	0.0	0.0	0.0	80.0	87.0	82.0	88.0	0.0	0.0	0.0	76.0	0.0	1.0	0.0	0.0	0.0	0.0	0.0	0.0	0.0	1.0	1.0	0.0	0.0	0.0	0.0	0.0	0.0	0.0	0.0	1.0	1.0	5	Barri Gòtic	False	True	True
Capri by Fraser Barcelona	0	135	0	0	0	41.397621	2.188833	743	74	89	87	85	68	85	78	87	88	82	1	0	0	0	0	1	0	0	0	0.0	0.0	0.0	0.0	0.0	0.0	0.0	0.0	0.0	0.0	0.0	0.0	0.0	383.0	0.0	406.0	57.0	452.0	0.0	0.0	0.0	0.0	317.0	0.0	79.0	0.0	86.0	87.0	88.0	0.0	0.0	0.0	0.0	85.0	0.0	1.0	1.0	1.0	0.0	1.0	0.0	1.0	0.0	1.0	1.0	0.0	0.0	0.0	0.0	0.0	0.0	0.0	0.0	1.0	1.0	5	el Parc i la Llacuna del Poblenou	False	True	False
Hesperia del Mar	0	104	1	0	0	41.401501	2.21	1757	80	84	80	79	74	80	80	77	84	77	1	0	0	0	0	0	0	0	0	1.0	0.0	0.0	1.0	0.0	0.0	0.0	1.0	0.0	1.0	0.0	0.0	0.0	383.0	0.0	406.0	57.0	452.0	0.0	0.0	0.0	0.0	317.0	0.0	76.0	0.0	80.0	83.0	80.0	0.0	0.0	0.0	0.0	78.0	0.0	1.0	1.0	0.0	1.0	1.0	0.0	1.0	0.0	0.0	1.0	0.0	0.0	0.0	0.0	0.0	0.0	0.0	0.0	0.0	1.0	5	Diagonal Mar i el Front Marítim del Poblenou	False	False	False
Hotel 1898	0	204	0	0	0	41.383434	2.171231	3892	79	96	92	91	84	94	96	90	91	84	0	0	0	0	0	1	0	0	0	0.0	0.0	0.0	0.0	0.0	0.0	0.0	0.0	0.0	1.0	0.0	0.0	0.0	0.0	0.0	406.0	57.0	452.0	0.0	71.0	0.0	0.0	317.0	0.0	0.0	0.0	96.0	83.0	94.0	0.0	94.0	0.0	0.0	92.0	0.0	1.0	1.0	1.0	0.0	1.0	1.0	1.0	1.0	1.0	1.0	0.0	0.0	0.0	0.0	0.0	0.0	0.0	0.0	1.0	1.0	5	Barri Gòtic	False	True	True
Le Méridien Barcelona	0	219	0	0	0	41.383774	2.170972	1542	0	89	85	79	81	84	95	83	85	77	0	1	0	0	0	1	0	0	0	0.0	0.0	1.0	0.0	0.0	1.0	1.0	1.0	1.0	1.0	0.0	1.0	0.0	383.0	0.0	406.0	57.0	452.0	0.0	0.0	0.0	0.0	317.0	0.0	66.0	0.0	86.0	88.0	84.0	0.0	0.0	0.0	0.0	78.0	0.0	1.0	1.0	0.0	1.0	1.0	0.0	1.0	1.0	1.0	1.0	0.0	0.0	0.0	0.0	0.0	0.0	0.0	0.0	1.0	1.0	5	el Raval	True	False	True
Casa Bonay	0	123	0	0	0	41.393597	2.174272	104	0	92	86	83	0	84	90	0	90	81	1	1	1	0	0	1	0	0	1	0.0	0.0	0.0	0.0	0.0	0.0	0.0	0.0	0.0	0.0	0.0	0.0	0.0	0.0	0.0	406.0	0.0	452.0	0.0	0.0	0.0	0.0	0.0	0.0	0.0	0.0	70.0	0.0	94.0	0.0	0.0	0.0	0.0	0.0	0.0	1.0	1.0	0.0	0.0	0.0	0.0	1.0	0.0	0.0	0.0	0.0	0.0	0.0	0.0	0.0	0.0	0.0	0.0	0.0	0.0	5	la Dreta de l'Eixample	True	False	True
Onix Rambla	0	112	0	0	0	41.38921	2.1663	1550	71	86	79	77	74	80	94	82	83	79	0	1	0	0	0	1	0	0	0	0.0	0.0	0.0	0.0	0.0	0.0	0.0	0.0	0.0	1.0	0.0	0.0	0.0	383.0	0.0	406.0	57.0	452.0	0.0	0.0	0.0	0.0	317.0	0.0	84.0	0.0	80.0	72.0	80.0	0.0	0.0	0.0	0.0	83.0	0.0	1.0	0.0	1.0	0.0	1.0	1.0	0.0	0.0	1.0	1.0	0.0	0.0	0.0	0.0	0.0	0.0	0.0	0.0	1.0	1.0	5	la Dreta de l'Eixample	True	False	True
Hcc Lugano	0	99	0	0	0	41.375206	2.15547	1276	75	90	84	82	76	86	88	84	88	83	1	0	0	1	0	1	0	0	0	0.0	0.0	0.0	0.0	0.0	1.0	0.0	0.0	1.0	1.0	0.0	1.0	0.0	0.0	0.0	406.0	57.0	452.0	0.0	0.0	0.0	0.0	0.0	0.0	0.0	0.0	88.0	88.0	88.0	0.0	0.0	0.0	0.0	0.0	0.0	1.0	1.0	0.0	0.0	1.0	0.0	0.0	0.0	1.0	1.0	0.0	0.0	0.0	0.0	0.0	0.0	0.0	0.0	1.0	1.0	5	Sant Antoni	False	True	True
Forget Me Not	0	105	0	0	0	41.391102	2.158204	667	78	91	83	83	78	84	90	83	89	83	0	0	0	0	0	1	0	0	0	0.0	0.0	0.0	0.0	0.0	0.0	0.0	0.0	0.0	0.0	0.0	0.0	0.0	0.0	0.0	406.0	57.0	452.0	0.0	0.0	0.0	0.0	0.0	0.0	0.0	0.0	84.0	87.0	84.0	0.0	0.0	0.0	0.0	0.0	0.0	1.0	0.0	0.0	0.0	1.0	0.0	0.0	0.0	1.0	1.0	0.0	0.0	0.0	0.0	0.0	0.0	0.0	0.0	1.0	1.0	2	l'Antiga Esquerra de l'Eixample	False	True	True
H10 Casanova	0	115	0	0	0	41.384201	2.1607	2299	78	86	83	83	81	83	89	84	86	82	1	0	0	0	0	1	0	0	1	0.0	0.0	0.0	0.0	0.0	1.0	0.0	1.0	1.0	1.0	0.0	0.0	0.0	383.0	0.0	406.0	57.0	452.0	0.0	0.0	0.0	0.0	317.0	0.0	82.0	0.0	86.0	87.0	86.0	0.0	0.0	0.0	0.0	93.0	0.0	1.0	1.0	0.0	0.0	1.0	1.0	0.0	1.0	1.0	1.0	0.0	0.0	0.0	0.0	0.0	0.0	0.0	0.0	1.0	1.0	5	l'Antiga Esquerra de l'Eixample	False	True	True
Vueling Bcn By Hc	0	126	0	0	0	41.382057	2.158685	861	76	91	87	85	81	85	91	87	91	83	1	0	0	0	0	1	0	0	0	0.0	0.0	0.0	0.0	0.0	0.0	0.0	0.0	0.0	1.0	0.0	0.0	0.0	383.0	0.0	406.0	57.0	452.0	0.0	0.0	0.0	0.0	0.0	0.0	81.0	0.0	88.0	87.0	88.0	0.0	0.0	0.0	0.0	0.0	0.0	1.0	1.0	1.0	0.0	0.0	1.0	1.0	0.0	1.0	1.0	0.0	0.0	0.0	0.0	0.0	0.0	0.0	0.0	1.0	1.0	5	l'Antiga Esquerra de l'Eixample	False	True	True
Bagués	0	248	0	0	0	41.382786	2.171607	914	75	93	87	83	81	87	95	85	93	82	1	0	0	0	0	0	0	0	0	0.0	0.0	0.0	0.0	0.0	0.0	0.0	0.0	1.0	1.0	0.0	1.0	0.0	0.0	0.0	406.0	57.0	452.0	654.0	71.0	0.0	0.0	0.0	0.0	0.0	0.0	90.0	87.0	92.0	92.0	93.0	0.0	0.0	0.0	0.0	1.0	1.0	1.0	1.0	1.0	1.0	1.0	0.0	1.0	1.0	0.0	0.0	0.0	0.0	0.0	0.0	0.0	0.0	1.0	1.0	5	el Raval	False	True	True
Silken Gran Hotel Havana	0	145	0	0	0	41.392609	2.172038	3533	77	88	84	82	80	84	88	82	85	81	1	0	0	0	0	1	0	0	0	0.0	0.0	0.0	0.0	0.0	0.0	0.0	0.0	0.0	1.0	0.0	0.0	0.0	0.0	0.0	406.0	57.0	452.0	0.0	71.0	0.0	0.0	317.0	0.0	0.0	0.0	86.0	80.0	86.0	0.0	89.0	0.0	0.0	83.0	0.0	1.0	1.0	0.0	0.0	1.0	1.0	1.0	0.0	1.0	1.0	0.0	0.0	0.0	0.0	0.0	0.0	0.0	0.0	1.0	1.0	5	la Dreta de l'Eixample	True	False	True
Catalonia La Pedrera	0	100	0	0	0	41.388973	2.154067	1357	73	85	81	79	72	79	85	76	83	78	1	0	0	0	0	0	0	0	0	0.0	0.0	0.0	0.0	0.0	0.0	0.0	0.0	0.0	1.0	0.0	0.0	0.0	383.0	0.0	406.0	57.0	452.0	0.0	0.0	0.0	0.0	317.0	0.0	82.0	0.0	80.0	80.0	80.0	0.0	0.0	0.0	0.0	78.0	0.0	1.0	1.0	0.0	1.0	0.0	1.0	1.0	0.0	1.0	1.0	0.0	0.0	0.0	0.0	0.0	0.0	0.0	0.0	1.0	1.0	5	l'Antiga Esquerra de l'Eixample	False	True	True
Retrome Barcelona	0	126	0	0	1	41.395416	2.170187	680	0	91	86	83	0	85	89	85	91	83	1	0	1	0	0	0	0	0	0	0.0	0.0	0.0	0.0	0.0	0.0	0.0	0.0	0.0	0.0	0.0	0.0	1.0	0.0	0.0	406.0	57.0	452.0	0.0	0.0	0.0	0.0	0.0	0.0	0.0	0.0	88.0	90.0	88.0	0.0	0.0	0.0	0.0	0.0	0.0	1.0	0.0	0.0	1.0	0.0	0.0	0.0	0.0	1.0	1.0	0.0	0.0	0.0	0.0	0.0	0.0	0.0	0.0	0.0	0.0	2	la Dreta de l'Eixample	True	False	True
Petit Palace Hoteles	0	199	0	0	0	41.381401	2.174	2348	75	81	76	74	75	78	92	72	80	72	1	0	0	0	0	1	0	0	1	0.0	0.0	0.0	0.0	0.0	1.0	0.0	0.0	0.0	1.0	0.0	0.0	0.0	383.0	0.0	406.0	57.0	452.0	0.0	0.0	0.0	0.0	317.0	0.0	72.0	0.0	76.0	87.0	78.0	0.0	0.0	0.0	0.0	73.0	0.0	1.0	1.0	0.0	0.0	0.0	0.0	0.0	0.0	1.0	1.0	0.0	0.0	0.0	0.0	0.0	0.0	0.0	0.0	0.0	0.0	5	el Gòtic	False	True	True
Ayre Hotel Rosellon	0	112	1	0	1	41.404739	2.172713	1829	78	89	81	78	79	85	89	82	89	81	1	0	0	0	0	0	0	0	0	0.0	0.0	0.0	0.0	0.0	0.0	0.0	0.0	0.0	1.0	0.0	0.0	0.0	383.0	0.0	406.0	57.0	452.0	0.0	71.0	0.0	0.0	0.0	0.0	86.0	0.0	86.0	87.0	84.0	0.0	87.0	0.0	0.0	0.0	0.0	1.0	1.0	0.0	0.0	1.0	0.0	1.0	0.0	1.0	1.0	0.0	0.0	0.0	0.0	0.0	0.0	0.0	0.0	1.0	1.0	5	la Sagrada Família	False	True	True
Hotel Sant AgustÍ	0	100	0	0	0	41.383842	2.165285	359	70	79	74	73	74	77	91	73	75	76	1	0	0	0	1	1	0	0	1	0.0	0.0	0.0	0.0	0.0	1.0	0.0	0.0	0.0	0.0	0.0	0.0	0.0	383.0	0.0	406.0	57.0	0.0	654.0	0.0	0.0	0.0	317.0	0.0	73.0	0.0	66.0	77.0	0.0	78.0	0.0	0.0	0.0	73.0	0.0	1.0	1.0	0.0	1.0	1.0	0.0	1.0	0.0	1.0	1.0	0.0	0.0	0.0	0.0	0.0	0.0	0.0	0.0	1.0	0.0	5	el Raval	False	True	True
Hotel Advance	0	140	0	0	0	41.383335	2.162827	1301	75	89	81	78	76	86	88	80	85	78	1	0	0	0	0	0	0	0	0	0.0	0.0	0.0	0.0	0.0	0.0	0.0	0.0	0.0	1.0	0.0	0.0	0.0	0.0	0.0	406.0	57.0	452.0	0.0	71.0	0.0	0.0	317.0	0.0	0.0	0.0	86.0	83.0	82.0	0.0	88.0	0.0	0.0	80.0	0.0	1.0	1.0	1.0	0.0	0.0	0.0	0.0	0.0	1.0	1.0	0.0	0.0	0.0	0.0	0.0	0.0	0.0	0.0	0.0	0.0	5	Sant Antoni	False	True	True
AC Hotel Sants by Marriot	0	146	0	0	0	41.377701	2.139065	1155	74	85	81	78	77	83	82	79	81	75	1	0	0	0	0	0	0	0	0	0.0	0.0	0.0	0.0	0.0	0.0	0.0	0.0	0.0	1.0	0.0	0.0	0.0	383.0	0.0	406.0	57.0	452.0	0.0	0.0	0.0	0.0	0.0	0.0	83.0	0.0	82.0	87.0	80.0	0.0	0.0	0.0	0.0	0.0	0.0	1.0	1.0	1.0	0.0	1.0	0.0	0.0	0.0	1.0	1.0	0.0	0.0	0.0	0.0	0.0	0.0	0.0	0.0	0.0	1.0	5	Sants	False	False	False
Olivia Balmes	0	229	0	0	0	41.392094	2.158493	2171	76	96	92	90	79	92	93	90	96	86	1	0	0	1	0	0	0	0	0	0.0	0.0	0.0	0.0	0.0	1.0	0.0	1.0	0.0	1.0	0.0	0.0	0.0	0.0	0.0	406.0	57.0	452.0	0.0	71.0	0.0	0.0	0.0	0.0	0.0	0.0	94.0	90.0	94.0	0.0	100.0	0.0	0.0	0.0	0.0	1.0	1.0	0.0	0.0	1.0	1.0	1.0	0.0	1.0	1.0	0.0	0.0	0.0	0.0	0.0	0.0	0.0	0.0	1.0	1.0	5	l'Antiga Esquerra de l'Eixample	False	True	True
Eurostars Cristal Palace	0	102	0	0	0	41.389599	2.1661	1095	73	83	78	78	79	80	94	76	80	76	1	0	0	0	0	1	0	0	1	0.0	0.0	0.0	0.0	0.0	0.0	0.0	0.0	1.0	1.0	0.0	0.0	0.0	383.0	0.0	406.0	57.0	452.0	0.0	0.0	0.0	0.0	317.0	0.0	83.0	0.0	80.0	78.0	76.0	0.0	0.0	0.0	0.0	75.0	0.0	1.0	1.0	0.0	0.0	1.0	0.0	0.0	0.0	1.0	1.0	0.0	0.0	0.0	0.0	0.0	0.0	0.0	0.0	1.0	1.0	5	la Dreta de l'Eixample	True	False	True
Catalonia Passeig De Gracia	0	162	0	0	0	41.390156	2.169646	576	0	94	91	89	76	90	95	87	92	85	1	0	0	0	0	0	0	0	0	0.0	0.0	0.0	0.0	0.0	0.0	0.0	1.0	0.0	0.0	0.0	0.0	0.0	0.0	0.0	406.0	57.0	452.0	0.0	0.0	0.0	0.0	0.0	0.0	0.0	0.0	94.0	85.0	94.0	0.0	0.0	0.0	0.0	0.0	0.0	1.0	1.0	1.0	1.0	1.0	1.0	1.0	0.0	1.0	1.0	0.0	0.0	0.0	0.0	0.0	0.0	0.0	0.0	1.0	1.0	5	la Dreta de l'Eixample	True	False	True
NH Collection Barcelona Gran Hotel Calderón	0	161	0	0	0	41.389301	2.1663	1998	79	88	85	85	81	86	95	83	84	79	1	0	0	0	0	0	0	0	0	0.0	0.0	0.0	0.0	0.0	0.0	0.0	1.0	0.0	1.0	0.0	0.0	0.0	0.0	0.0	406.0	57.0	452.0	654.0	0.0	0.0	0.0	317.0	0.0	0.0	0.0	86.0	87.0	84.0	90.0	0.0	0.0	0.0	84.0	0.0	1.0	1.0	1.0	0.0	1.0	1.0	1.0	0.0	1.0	1.0	0.0	0.0	0.0	0.0	0.0	0.0	0.0	0.0	1.0	1.0	5	la Dreta de l'Eixample	True	False	True
H10 Catalunya Plaza	0	139	0	0	0	41.387417	2.168051	888	80	88	81	84	81	83	95	78	89	80	1	0	0	0	0	0	0	0	0	0.0	0.0	0.0	0.0	0.0	0.0	0.0	0.0	0.0	1.0	0.0	0.0	0.0	383.0	0.0	406.0	57.0	452.0	0.0	0.0	0.0	0.0	317.0	0.0	77.0	0.0	84.0	83.0	86.0	0.0	0.0	0.0	0.0	83.0	0.0	1.0	1.0	0.0	0.0	1.0	0.0	1.0	0.0	1.0	1.0	0.0	0.0	0.0	0.0	0.0	0.0	0.0	0.0	1.0	1.0	5	la Dreta de l'Eixample	True	False	True
Catalonia Barcelona Golf	0	77	0	0	0	41.397099	2.1514	1069	76	83	77	80	73	73	79	80	83	81	1	0	0	0	0	0	0	0	0	0.0	0.0	0.0	0.0	0.0	0.0	0.0	1.0	0.0	0.0	0.0	0.0	0.0	383.0	0.0	406.0	57.0	452.0	0.0	0.0	0.0	0.0	317.0	0.0	81.0	0.0	84.0	73.0	82.0	0.0	0.0	0.0	0.0	87.0	0.0	1.0	1.0	0.0	1.0	1.0	0.0	1.0	0.0	1.0	1.0	0.0	0.0	0.0	0.0	0.0	0.0	0.0	0.0	1.0	1.0	5	Sant Gervasi - Galvany	False	True	False
Barcelona City Centre	0	90	0	0	0	41.385063	2.173403	465	75	76	64	70	75	65	80	74	76	74	1	0	0	0	0	0	0	0	1	0.0	0.0	0.0	0.0	0.0	1.0	0.0	0.0	0.0	0.0	0.0	0.0	0.0	383.0	0.0	406.0	57.0	452.0	0.0	0.0	0.0	0.0	0.0	434.0	66.0	0.0	60.0	92.0	54.0	0.0	0.0	0.0	0.0	0.0	88.0	1.0	0.0	0.0	0.0	1.0	0.0	0.0	0.0	1.0	1.0	0.0	0.0	0.0	0.0	0.0	0.0	0.0	0.0	1.0	1.0	4	el Gòtic	True	False	True
Exe Laietana Palace	0	126	0	0	0	41.383301	2.1793	2678	79	81	70	71	74	69	90	67	80	73	1	0	0	0	0	0	0	0	0	0.0	0.0	0.0	0.0	0.0	0.0	0.0	0.0	0.0	0.0	0.0	0.0	0.0	383.0	0.0	406.0	57.0	452.0	0.0	0.0	0.0	0.0	317.0	0.0	58.0	0.0	74.0	75.0	74.0	0.0	0.0	0.0	0.0	73.0	0.0	1.0	1.0	0.0	0.0	0.0	0.0	0.0	0.0	1.0	1.0	0.0	0.0	0.0	0.0	0.0	0.0	0.0	0.0	1.0	1.0	5	el Gòtic	False	True	True
Eurostars Ramblas	0	119	0	0	0	41.380314	2.178846	2138	0	85	81	74	73	80	91	81	84	78	1	0	0	1	0	1	0	0	0	0.0	0.0	0.0	0.0	0.0	0.0	0.0	0.0	0.0	0.0	0.0	0.0	0.0	0.0	0.0	406.0	57.0	452.0	0.0	0.0	0.0	0.0	0.0	0.0	0.0	0.0	84.0	85.0	82.0	0.0	0.0	0.0	0.0	0.0	0.0	1.0	1.0	0.0	0.0	0.0	0.0	0.0	0.0	1.0	1.0	0.0	0.0	0.0	0.0	0.0	0.0	0.0	0.0	0.0	0.0	5	el Gòtic	False	True	True
Eric Vökel Bcn Suites	0	134	0	0	0	41.402447	2.169024	450	0	88	86	84	75	84	85	88	87	84	1	0	0	0	0	0	0	0	0	0.0	0.0	1.0	0.0	0.0	1.0	0.0	1.0	0.0	1.0	0.0	0.0	0.0	383.0	0.0	406.0	57.0	452.0	0.0	0.0	0.0	0.0	0.0	0.0	88.0	0.0	90.0	95.0	88.0	0.0	0.0	0.0	0.0	0.0	0.0	1.0	0.0	0.0	1.0	1.0	0.0	0.0	0.0	1.0	1.0	0.0	0.0	0.0	0.0	0.0	0.0	0.0	0.0	1.0	1.0	1	la Dreta de l'Eixample	False	True	True
Sercotel Amister Art Hotel Barcelona	0	110	0	0	1	41.384407	2.151458	2413	73	89	86	82	78	86	78	84	89	83	0	1	0	0	0	0	0	0	0	0.0	0.0	0.0	0.0	0.0	0.0	0.0	0.0	1.0	1.0	0.0	0.0	0.0	383.0	0.0	406.0	57.0	452.0	0.0	71.0	0.0	0.0	0.0	0.0	83.0	0.0	88.0	80.0	88.0	0.0	89.0	0.0	0.0	0.0	0.0	1.0	1.0	0.0	1.0	1.0	0.0	1.0	0.0	1.0	1.0	0.0	0.0	0.0	0.0	0.0	0.0	0.0	0.0	0.0	0.0	5	la Nova Esquerra de l'Eixample	False	True	True
Sant Angelo	0	89	0	0	0	41.3792	2.1502	1002	73	83	73	72	77	74	83	72	83	76	1	0	0	0	1	0	0	0	0	0.0	0.0	0.0	0.0	0.0	0.0	0.0	0.0	1.0	1.0	0.0	0.0	0.0	383.0	0.0	406.0	57.0	452.0	0.0	0.0	0.0	0.0	317.0	0.0	81.0	0.0	76.0	70.0	74.0	0.0	0.0	0.0	0.0	76.0	0.0	1.0	0.0	0.0	0.0	1.0	0.0	0.0	0.0	1.0	1.0	0.0	0.0	0.0	0.0	0.0	0.0	0.0	0.0	1.0	1.0	5	Carrer del Consell de Cent	False	True	False
Hcc Taber	0	79	0	0	0	41.390499	2.1631	1267	68	84	74	77	74	76	88	74	79	75	1	0	0	1	1	0	1	0	0	0.0	0.0	0.0	0.0	0.0	1.0	0.0	0.0	0.0	1.0	0.0	1.0	0.0	383.0	0.0	406.0	57.0	452.0	0.0	0.0	0.0	0.0	317.0	0.0	76.0	0.0	78.0	82.0	78.0	0.0	0.0	0.0	0.0	80.0	0.0	1.0	1.0	0.0	0.0	0.0	0.0	0.0	0.0	1.0	1.0	0.0	0.0	0.0	0.0	0.0	0.0	0.0	0.0	0.0	0.0	5	l'Antiga Esquerra de l'Eixample	True	False	True
Hotel Barcelona Catedral	0	139	0	0	0	41.384785	2.17506	968	74	92	87	86	82	88	96	85	89	80	1	0	0	0	0	0	0	0	1	0.0	0.0	1.0	0.0	0.0	1.0	0.0	0.0	0.0	1.0	0.0	0.0	0.0	383.0	0.0	406.0	57.0	452.0	0.0	71.0	0.0	0.0	0.0	0.0	86.0	0.0	90.0	93.0	90.0	0.0	91.0	0.0	0.0	0.0	0.0	1.0	1.0	1.0	1.0	1.0	1.0	1.0	0.0	1.0	1.0	0.0	0.0	0.0	0.0	0.0	0.0	0.0	0.0	1.0	1.0	5	el Gòtic	False	True	True
Grand Hotel Central	0	226	0	0	0	41.384941	2.177691	2824	79	94	87	84	81	89	95	86	93	82	0	1	0	0	0	1	0	0	0	0.0	0.0	1.0	0.0	0.0	1.0	1.0	1.0	1.0	1.0	0.0	0.0	0.0	0.0	0.0	406.0	57.0	452.0	0.0	71.0	0.0	0.0	317.0	0.0	0.0	0.0	90.0	80.0	92.0	0.0	89.0	0.0	0.0	90.0	0.0	1.0	1.0	1.0	0.0	1.0	1.0	1.0	1.0	1.0	1.0	0.0	0.0	0.0	0.0	0.0	0.0	0.0	0.0	0.0	0.0	5	Santa Caterina i la Ribera	False	True	True
Àmbit Barcelona	0	108	0	0	0	41.390781	2.171743	782	78	91	87	83	78	85	92	79	93	82	1	1	1	0	0	0	0	0	0	0.0	0.0	0.0	0.0	0.0	0.0	0.0	0.0	0.0	0.0	0.0	1.0	0.0	0.0	0.0	406.0	57.0	452.0	0.0	0.0	0.0	0.0	0.0	0.0	0.0	0.0	90.0	83.0	92.0	0.0	0.0	0.0	0.0	0.0	0.0	1.0	0.0	0.0	0.0	0.0	0.0	0.0	0.0	1.0	1.0	0.0	0.0	0.0	0.0	0.0	0.0	0.0	0.0	1.0	1.0	5	la Dreta de l'Eixample	True	False	True
Barcelona Station	0	99	0	0	1	41.3745	2.135489	836	0	86	77	80	77	82	83	77	87	79	0	0	0	0	0	0	0	0	1	0.0	0.0	1.0	0.0	0.0	1.0	0.0	1.0	0.0	1.0	0.0	0.0	0.0	0.0	0.0	406.0	57.0	452.0	0.0	0.0	0.0	0.0	317.0	0.0	0.0	0.0	82.0	60.0	82.0	0.0	0.0	0.0	0.0	80.0	0.0	1.0	0.0	0.0	0.0	1.0	0.0	0.0	0.0	1.0	1.0	0.0	0.0	0.0	0.0	0.0	0.0	0.0	0.0	1.0	1.0	3	Sants	False	False	False
H10 Metropolitan	0	135	0	0	0	41.387764	2.167727	523	0	91	90	89	82	88	96	82	93	84	1	0	1	0	0	0	0	0	0	0.0	0.0	0.0	0.0	0.0	0.0	0.0	0.0	0.0	1.0	0.0	0.0	0.0	0.0	0.0	406.0	57.0	452.0	0.0	71.0	0.0	0.0	0.0	0.0	0.0	0.0	92.0	90.0	92.0	0.0	100.0	0.0	0.0	0.0	0.0	1.0	1.0	1.0	0.0	0.0	1.0	1.0	0.0	1.0	1.0	0.0	0.0	0.0	0.0	0.0	0.0	0.0	0.0	1.0	1.0	5	la Dreta de l'Eixample	True	False	True
Catalonia Diagonal Centro	0	110	0	0	0	41.393902	2.1568	278	77	81	78	77	71	79	86	73	80	75	1	0	0	1	0	0	0	0	1	0.0	0.0	0.0	0.0	0.0	0.0	0.0	0.0	0.0	1.0	0.0	0.0	0.0	383.0	0.0	406.0	57.0	452.0	0.0	0.0	0.0	0.0	317.0	0.0	71.0	0.0	80.0	68.0	82.0	0.0	0.0	0.0	0.0	82.0	0.0	1.0	1.0	0.0	0.0	1.0	0.0	1.0	0.0	1.0	1.0	0.0	0.0	0.0	0.0	0.0	0.0	0.0	0.0	1.0	1.0	5	l'Antiga Esquerra de l'Eixample	False	True	True
Ohla Barcelona	0	310	0	0	1	41.386974	2.174378	2936	75	93	89	86	84	90	95	87	91	80	1	0	0	0	0	0	0	0	0	0.0	0.0	0.0	0.0	0.0	1.0	1.0	0.0	1.0	1.0	0.0	0.0	0.0	0.0	0.0	406.0	57.0	452.0	0.0	71.0	0.0	0.0	317.0	0.0	0.0	0.0	92.0	92.0	92.0	0.0	88.0	0.0	0.0	88.0	0.0	1.0	1.0	1.0	0.0	1.0	1.0	1.0	0.0	1.0	1.0	0.0	0.0	0.0	0.0	0.0	0.0	0.0	0.0	1.0	1.0	5	Sant Pere	True	False	False
Constanza	0	100	0	0	0	41.390858	2.173934	1883	74	91	86	83	71	86	91	86	89	84	1	0	0	1	0	0	0	0	0	0.0	0.0	0.0	0.0	0.0	0.0	0.0	0.0	0.0	0.0	0.0	0.0	0.0	383.0	0.0	406.0	57.0	452.0	0.0	0.0	0.0	0.0	317.0	0.0	88.0	0.0	88.0	80.0	88.0	0.0	0.0	0.0	0.0	88.0	0.0	1.0	0.0	0.0	0.0	1.0	0.0	0.0	0.0	1.0	1.0	0.0	0.0	0.0	0.0	0.0	0.0	0.0	0.0	1.0	1.0	5	la Dreta de l'Eixample	True	False	True
Bbarcelona Apartments	0	214	0	0	0	41.408199	2.179388	521	0	89	85	85	0	79	85	0	85	82	1	0	0	0	1	0	1	1	1	0.0	0.0	0.0	0.0	0.0	1.0	0.0	0.0	0.0	0.0	0.0	0.0	0.0	0.0	0.0	406.0	57.0	452.0	0.0	0.0	0.0	0.0	0.0	0.0	0.0	0.0	92.0	90.0	92.0	0.0	0.0	0.0	0.0	0.0	0.0	1.0	0.0	0.0	0.0	0.0	0.0	0.0	0.0	1.0	0.0	0.0	0.0	0.0	0.0	0.0	0.0	0.0	0.0	1.0	0.0	3	la Sagrada Família	False	True	True
Hotel Gaudi	0	116	0	0	1	41.378925	2.173988	813	0	86	77	79	74	79	94	78	84	80	1	0	0	1	0	0	0	0	1	0.0	0.0	1.0	0.0	0.0	0.0	0.0	0.0	0.0	1.0	0.0	0.0	0.0	383.0	0.0	406.0	57.0	452.0	0.0	0.0	0.0	0.0	317.0	0.0	73.0	0.0	82.0	80.0	80.0	0.0	0.0	0.0	0.0	85.0	0.0	1.0	1.0	1.0	1.0	1.0	0.0	0.0	0.0	1.0	1.0	0.0	0.0	0.0	0.0	0.0	0.0	0.0	0.0	1.0	1.0	5	el Raval	False	True	True
Avenida Palace	0	137	0	0	0	41.389099	2.1673	2029	74	85	80	77	82	82	95	79	82	78	0	1	0	0	0	1	0	0	0	0.0	0.0	1.0	0.0	0.0	0.0	0.0	1.0	0.0	1.0	0.0	0.0	0.0	383.0	0.0	406.0	57.0	452.0	0.0	0.0	0.0	0.0	317.0	0.0	79.0	0.0	86.0	82.0	82.0	0.0	0.0	0.0	0.0	88.0	0.0	1.0	1.0	0.0	1.0	0.0	0.0	1.0	0.0	1.0	1.0	0.0	0.0	0.0	0.0	0.0	0.0	0.0	0.0	1.0	1.0	5	la Dreta de l'Eixample	True	False	True
Grupotel Gravina	0	107	0	0	0	41.385468	2.165809	3410	77	83	73	75	80	80	91	72	87	76	1	0	0	1	0	1	0	0	1	0.0	0.0	0.0	0.0	0.0	0.0	0.0	0.0	0.0	1.0	0.0	0.0	0.0	383.0	0.0	406.0	57.0	452.0	0.0	0.0	0.0	0.0	317.0	0.0	85.0	0.0	80.0	75.0	78.0	0.0	0.0	0.0	0.0	81.0	0.0	1.0	1.0	0.0	0.0	0.0	0.0	1.0	0.0	1.0	1.0	0.0	0.0	0.0	0.0	0.0	0.0	0.0	0.0	0.0	0.0	5	la Dreta de l'Eixample	True	False	True
Colon Barcelona	0	185	0	0	1	41.384998	2.1758	2258	72	89	83	83	78	83	96	81	87	80	1	0	0	0	0	1	0	0	1	0.0	0.0	1.0	0.0	0.0	0.0	0.0	0.0	1.0	1.0	0.0	0.0	0.0	383.0	0.0	406.0	57.0	452.0	0.0	0.0	0.0	0.0	317.0	0.0	86.0	0.0	86.0	90.0	88.0	0.0	0.0	0.0	0.0	88.0	0.0	1.0	1.0	0.0	0.0	1.0	0.0	1.0	1.0	1.0	1.0	0.0	0.0	0.0	0.0	0.0	0.0	0.0	0.0	1.0	1.0	5	el Gòtic	False	True	True
Catalonia Eixample 1864	0	120	0	0	0	41.393501	2.1687	468	78	84	79	81	67	73	88	76	82	77	1	0	0	0	0	0	0	0	0	0.0	0.0	0.0	1.0	0.0	0.0	0.0	0.0	0.0	1.0	0.0	0.0	0.0	383.0	0.0	406.0	57.0	452.0	0.0	0.0	0.0	0.0	317.0	0.0	85.0	0.0	78.0	93.0	78.0	0.0	0.0	0.0	0.0	81.0	0.0	1.0	1.0	1.0	1.0	1.0	0.0	1.0	0.0	1.0	1.0	0.0	0.0	0.0	0.0	0.0	0.0	0.0	0.0	1.0	1.0	5	la Dreta de l'Eixample	True	False	True
AC Hotel Barcelona Forum	0	109	0	0	0	41.410294	2.218468	1540	79	88	84	79	78	86	78	81	81	76	0	0	1	0	0	0	0	0	0	0.0	0.0	0.0	0.0	0.0	0.0	1.0	1.0	0.0	1.0	0.0	0.0	0.0	383.0	0.0	406.0	57.0	452.0	0.0	0.0	0.0	0.0	317.0	0.0	83.0	0.0	84.0	80.0	82.0	0.0	0.0	0.0	0.0	84.0	0.0	1.0	1.0	1.0	1.0	1.0	1.0	1.0	1.0	1.0	1.0	0.0	0.0	0.0	0.0	0.0	0.0	0.0	0.0	0.0	0.0	5	Diagonal Mar i el Front Marítim del Poblenou	False	False	False
Oriente Atiram 	0	134	0	0	0	41.3797	2.1743	5851	68	81	71	71	70	72	91	73	79	74	1	0	0	0	0	0	0	0	0	0.0	0.0	0.0	0.0	0.0	0.0	0.0	1.0	0.0	1.0	0.0	0.0	0.0	383.0	0.0	406.0	57.0	452.0	0.0	0.0	0.0	0.0	317.0	0.0	73.0	0.0	74.0	78.0	74.0	0.0	0.0	0.0	0.0	73.0	0.0	1.0	1.0	0.0	1.0	1.0	0.0	1.0	0.0	1.0	1.0	0.0	0.0	0.0	0.0	0.0	0.0	0.0	0.0	1.0	1.0	5	Barri Gòtic	False	True	True
Dailyflats Parc Guell	0	168	0	0	0	41.405807	2.14857	167	0	87	84	83	0	0	84	0	82	80	1	0	0	0	0	0	0	1	0	0.0	0.0	0.0	0.0	0.0	0.0	0.0	0.0	0.0	0.0	0.0	0.0	0.0	0.0	0.0	406.0	0.0	452.0	0.0	0.0	0.0	0.0	0.0	0.0	0.0	0.0	76.0	0.0	80.0	0.0	0.0	0.0	0.0	0.0	0.0	1.0	0.0	0.0	1.0	1.0	0.0	0.0	0.0	1.0	1.0	0.0	0.0	0.0	0.0	0.0	0.0	0.0	0.0	1.0	1.0	3	el Putget i Farró	False	True	False
Silken Ramblas	0	140	1	0	0	41.383099	2.1701	3254	74	80	73	76	80	76	92	74	81	73	0	0	0	0	0	1	0	0	1	0.0	0.0	0.0	0.0	0.0	0.0	0.0	0.0	1.0	1.0	0.0	0.0	0.0	383.0	0.0	406.0	57.0	452.0	0.0	0.0	0.0	0.0	317.0	0.0	82.0	0.0	78.0	78.0	76.0	0.0	0.0	0.0	0.0	77.0	0.0	1.0	1.0	0.0	1.0	1.0	1.0	1.0	0.0	1.0	1.0	0.0	0.0	0.0	0.0	0.0	0.0	0.0	0.0	0.0	0.0	5	el Raval	False	True	True
